header: 
  seq: 29172
  stamp: 
    secs: 1401812596
    nsecs: 81372976
  frame_id: ''
data: [-2.2650306754506198, -25.730462518134967, 260.8524373291965, 0.26770833333333333, 0.25624999999999998, -0.39384469696969698]
---
header: 
  seq: 29173
  stamp: 
    secs: 1401812596
    nsecs: 89363098
  frame_id: ''
data: [-2.262834585256996, -25.730273184880364, 260.85649487338685, 0.2674242424242424, 0.25587121212121211, -0.39384469696969698]
---
header: 
  seq: 29174
  stamp: 
    secs: 1401812596
    nsecs: 100869894
  frame_id: ''
data: [-2.2609593596947972, -25.727828589280236, 260.85919860597829, 0.26770833333333333, 0.25577651515151517, -0.39393939393939392]
---
header: 
  seq: 29175
  stamp: 
    secs: 1401812596
    nsecs: 108870029
  frame_id: ''
data: [-2.2593581181249682, -25.728785067146607, 260.85922437841828, 0.2674242424242424, 0.25587121212121211, -0.39374999999999999]
---
header: 
  seq: 29176
  stamp: 
    secs: 1401812596
    nsecs: 120872020
  frame_id: ''
data: [-2.2579908295082634, -25.728079846491063, 260.85391955961671, 0.26761363636363639, 0.25587121212121211, -0.39393939393939392]
---
header: 
  seq: 29177
  stamp: 
    secs: 1401812596
    nsecs: 128875017
  frame_id: ''
data: [-2.2575842867295548, -25.728238638764751, 260.85547761394122, 0.26723484848484846, 0.25587121212121211, -0.39393939393939392]
---
header: 
  seq: 29178
  stamp: 
    secs: 1401812596
    nsecs: 137351989
  frame_id: ''
data: [-2.2587590929863315, -25.72989618054147, 260.85452509998004, 0.26751893939393939, 0.25568181818181818, -0.39374999999999999]
---
header: 
  seq: 29179
  stamp: 
    secs: 1401812596
    nsecs: 149352073
  frame_id: ''
data: [-2.258240301367187, -25.728267643097233, 260.85827760578678, 0.26789772727272726, 0.25596590909090911, -0.39384469696969698]
---
header: 
  seq: 29180
  stamp: 
    secs: 1401812596
    nsecs: 157356977
  frame_id: ''
data: [-2.2585582840491782, -25.729159972031297, 260.85691599280312, 0.26770833333333333, 0.25606060606060604, -0.39393939393939392]
---
header: 
  seq: 29181
  stamp: 
    secs: 1401812596
    nsecs: 169353961
  frame_id: ''
data: [-2.257307856965153, -25.728399975065564, 260.85423137110564, 0.26789772727272726, 0.25596590909090911, -0.39365530303030305]
---
header: 
  seq: 29182
  stamp: 
    secs: 1401812596
    nsecs: 176878929
  frame_id: ''
data: [-2.2592840267064154, -25.727751019143138, 260.85346094221967, 0.26770833333333333, 0.25624999999999998, -0.39384469696969698]
---
header: 
  seq: 29183
  stamp: 
    secs: 1401812596
    nsecs: 189465045
  frame_id: ''
data: [-2.2586885384811359, -25.729479805666827, 260.85432502875648, 0.26789772727272726, 0.25577651515151517, -0.39374999999999999]
---
header: 
  seq: 29184
  stamp: 
    secs: 1401812596
    nsecs: 197357892
  frame_id: ''
data: [-2.2581800553845515, -25.730195028898564, 260.85201896561102, 0.26780303030303032, 0.25634469696969697, -0.39374999999999999]
---
header: 
  seq: 29185
  stamp: 
    secs: 1401812596
    nsecs: 209364891
  frame_id: ''
data: [-2.2592678155398267, -25.727761852451604, 260.85765958594209, 0.26780303030303032, 0.25568181818181818, -0.39384469696969698]
---
header: 
  seq: 29186
  stamp: 
    secs: 1401812596
    nsecs: 217509031
  frame_id: ''
data: [-2.2586746958830184, -25.727206130849847, 260.86247607092167, 0.26789772727272726, 0.25596590909090911, -0.39365530303030305]
---
header: 
  seq: 29187
  stamp: 
    secs: 1401812596
    nsecs: 228389024
  frame_id: ''
data: [-2.2581682352899519, -25.730536479687451, 260.86354493227316, 0.26732954545454546, 0.25606060606060604, -0.39384469696969698]
---
header: 
  seq: 29188
  stamp: 
    secs: 1401812596
    nsecs: 236358880
  frame_id: ''
data: [-2.2584967473460908, -25.730336340116086, 260.867501525666, 0.26761363636363639, 0.25615530303030304, -0.39384469696969698]
---
header: 
  seq: 29189
  stamp: 
    secs: 1401812596
    nsecs: 248354911
  frame_id: ''
data: [-2.2602992116197949, -25.731687392581534, 260.86403125629784, 0.26751893939393939, 0.25596590909090911, -0.39393939393939392]
---
header: 
  seq: 29190
  stamp: 
    secs: 1401812596
    nsecs: 256359100
  frame_id: ''
data: [-2.2572724722489221, -25.731319096327606, 260.858024117936, 0.26770833333333333, 0.25568181818181818, -0.39384469696969698]
---
header: 
  seq: 29191
  stamp: 
    secs: 1401812596
    nsecs: 268356084
  frame_id: ''
data: [-2.2584928368523873, -25.729482660614625, 260.86126539195908, 0.26761363636363639, 0.25587121212121211, -0.39384469696969698]
---
header: 
  seq: 29192
  stamp: 
    secs: 1401812596
    nsecs: 276365995
  frame_id: ''
data: [-2.2595348973771623, -25.729436491617587, 260.86022821694633, 0.26761363636363639, 0.25568181818181818, -0.39393939393939392]
---
header: 
  seq: 29193
  stamp: 
    secs: 1401812596
    nsecs: 292363882
  frame_id: ''
data: [-2.2589027551357872, -25.730158043344613, 260.86010355579089, 0.26789772727272726, 0.25606060606060604, -0.39374999999999999]
---
header: 
  seq: 29194
  stamp: 
    secs: 1401812596
    nsecs: 300865888
  frame_id: ''
data: [-2.2576019983391835, -25.727730270754094, 260.85771418322935, 0.2674242424242424, 0.25596590909090911, -0.39384469696969698]
---
header: 
  seq: 29195
  stamp: 
    secs: 1401812596
    nsecs: 312865018
  frame_id: ''
data: [-2.2580132417016388, -25.725657213265762, 260.86556659155229, 0.26761363636363639, 0.25549242424242424, -0.39365530303030305]
---
header: 
  seq: 29196
  stamp: 
    secs: 1401812596
    nsecs: 320862054
  frame_id: ''
data: [-2.2560814741390995, -25.724648019542695, 260.86161805492668, 0.26789772727272726, 0.25577651515151517, -0.39356060606060606]
---
header: 
  seq: 29197
  stamp: 
    secs: 1401812596
    nsecs: 325359106
  frame_id: ''
data: [-2.2559539019639505, -25.723025301207908, 260.86433422880987, 0.26761363636363639, 0.25577651515151517, -0.39365530303030305]
---
header: 
  seq: 29198
  stamp: 
    secs: 1401812596
    nsecs: 336864948
  frame_id: ''
data: [-2.2550839939042771, -25.730010399839838, 260.86132672437793, 0.26856060606060606, 0.25653409090909091, -0.39431818181818185]
---
header: 
  seq: 29199
  stamp: 
    secs: 1401812596
    nsecs: 344866037
  frame_id: ''
data: [-2.2528192354916312, -25.73521395003414, 260.84810498665138, 0.26884469696969698, 0.25615530303030304, -0.39517045454545452]
---
header: 
  seq: 29200
  stamp: 
    secs: 1401812596
    nsecs: 360866069
  frame_id: ''
data: [-2.2516463497332326, -25.738135273778717, 260.84899064186243, 0.26799242424242425, 0.25634469696969697, -0.39460227272727272]
---
header: 
  seq: 29201
  stamp: 
    secs: 1401812596
    nsecs: 365358114
  frame_id: ''
data: [-2.2529277563523671, -25.739107820833848, 260.86268347315831, 0.26780303030303032, 0.25634469696969697, -0.39403409090909092]
---
header: 
  seq: 29202
  stamp: 
    secs: 1401812596
    nsecs: 380857944
  frame_id: ''
data: [-2.2502170647121957, -25.746787047645768, 260.86752690704719, 0.26761363636363639, 0.25653409090909091, -0.39488636363636365]
---
header: 
  seq: 29203
  stamp: 
    secs: 1401812596
    nsecs: 385356903
  frame_id: ''
data: [-2.2479024246898294, -25.753344283982162, 260.87927243128183, 0.26751893939393939, 0.25691287878787877, -0.39488636363636365]
---
header: 
  seq: 29204
  stamp: 
    secs: 1401812596
    nsecs: 396867036
  frame_id: ''
data: [-2.2466869453849982, -25.759704435851734, 260.89158477493271, 0.26732954545454546, 0.25700757575757577, -0.39488636363636365]
---
header: 
  seq: 29205
  stamp: 
    secs: 1401812596
    nsecs: 408874034
  frame_id: ''
data: [-2.2448880812811689, -25.765896298717891, 260.89905429588907, 0.2674242424242424, 0.25691287878787877, -0.39479166666666665]
---
header: 
  seq: 29206
  stamp: 
    secs: 1401812596
    nsecs: 416860103
  frame_id: ''
data: [-2.2418300940087899, -25.770422510618371, 260.89477881450529, 0.26751893939393939, 0.2571969696969697, -0.39517045454545452]
---
header: 
  seq: 29207
  stamp: 
    secs: 1401812596
    nsecs: 424861907
  frame_id: ''
data: [-2.2422628011544559, -25.772765460083729, 260.90025971302094, 0.26761363636363639, 0.25710227272727271, -0.39469696969696971]
---
header: 
  seq: 29208
  stamp: 
    secs: 1401812596
    nsecs: 436855077
  frame_id: ''
data: [-2.2411103364617371, -25.774005112617559, 260.9079837130966, 0.26780303030303032, 0.25710227272727271, -0.39469696969696971]
---
header: 
  seq: 29209
  stamp: 
    secs: 1401812596
    nsecs: 448856115
  frame_id: ''
data: [-2.2424091804814306, -25.774302667866539, 260.90468650469592, 0.26770833333333333, 0.2566287878787879, -0.39469696969696971]
---
header: 
  seq: 29210
  stamp: 
    secs: 1401812596
    nsecs: 456875085
  frame_id: ''
data: [-2.2412353287122908, -25.776839673446386, 260.90034909204536, 0.26770833333333333, 0.25615530303030304, -0.39469696969696971]
---
header: 
  seq: 29211
  stamp: 
    secs: 1401812596
    nsecs: 464859008
  frame_id: ''
data: [-2.2417549353615378, -25.774440153593986, 260.89512345649536, 0.26827651515151513, 0.2566287878787879, -0.39450757575757578]
---
header: 
  seq: 29212
  stamp: 
    secs: 1401812596
    nsecs: 476866960
  frame_id: ''
data: [-2.2444815490290257, -25.774674146215638, 260.89066132402445, 0.26799242424242425, 0.25643939393939397, -0.39441287878787878]
---
header: 
  seq: 29213
  stamp: 
    secs: 1401812596
    nsecs: 488861083
  frame_id: ''
data: [-2.2452878345549934, -25.774873950826013, 260.88989504172196, 0.26799242424242425, 0.25624999999999998, -0.39469696969696971]
---
header: 
  seq: 29214
  stamp: 
    secs: 1401812596
    nsecs: 496860027
  frame_id: ''
data: [-2.2467372910451253, -25.773522612339793, 260.88771876859528, 0.26837121212121212, 0.25596590909090911, -0.39479166666666665]
---
header: 
  seq: 29215
  stamp: 
    secs: 1401812596
    nsecs: 508862972
  frame_id: ''
data: [-2.2472139963777624, -25.772368714162067, 260.8835775393826, 0.26799242424242425, 0.25587121212121211, -0.39393939393939392]
---
header: 
  seq: 29216
  stamp: 
    secs: 1401812596
    nsecs: 520853996
  frame_id: ''
data: [-2.2499039769207125, -25.772905359038973, 260.88156332385506, 0.26893939393939392, 0.25624999999999998, -0.39403409090909092]
---
header: 
  seq: 29217
  stamp: 
    secs: 1401812596
    nsecs: 523610115
  frame_id: ''
data: [-2.2483960563852321, -25.768797745623448, 260.87603852425576, 0.26780303030303032, 0.25606060606060604, -0.39441287878787878]
---
header: 
  seq: 29218
  stamp: 
    secs: 1401812596
    nsecs: 533181905
  frame_id: ''
data: [-2.2501523543272079, -25.762246383780685, 260.87512581326433, 0.26808712121212119, 0.25568181818181818, -0.39393939393939392]
---
header: 
  seq: 29219
  stamp: 
    secs: 1401812596
    nsecs: 546272039
  frame_id: ''
data: [-2.2516520444606973, -25.759696123600261, 260.86978060533613, 0.26808712121212119, 0.25624999999999998, -0.39384469696969698]
---
header: 
  seq: 29220
  stamp: 
    secs: 1401812596
    nsecs: 553268909
  frame_id: ''
data: [-2.2529326190390377, -25.758279449943469, 260.87054319657665, 0.26808712121212119, 0.25606060606060604, -0.39422348484848485]
---
header: 
  seq: 29221
  stamp: 
    secs: 1401812596
    nsecs: 565264940
  frame_id: ''
data: [-2.2540260924266873, -25.757069762535263, 260.86510656692928, 0.26846590909090912, 0.25596590909090911, -0.39431818181818185]
---
header: 
  seq: 29222
  stamp: 
    secs: 1401812596
    nsecs: 573879957
  frame_id: ''
data: [-2.2549598014583374, -25.760602669792178, 260.85285451711894, 0.26837121212121212, 0.25606060606060604, -0.39450757575757578]
---
header: 
  seq: 29223
  stamp: 
    secs: 1401812596
    nsecs: 585860013
  frame_id: ''
data: [-2.2534741635589102, -25.764380368894184, 260.85456818184116, 0.26874999999999999, 0.25615530303030304, -0.39460227272727272]
---
header: 
  seq: 29224
  stamp: 
    secs: 1401812596
    nsecs: 593358993
  frame_id: ''
data: [-2.2522055880817891, -25.767606118885212, 260.85222659227463, 0.26884469696969698, 0.2566287878787879, -0.39507575757575758]
---
header: 
  seq: 29225
  stamp: 
    secs: 1401812596
    nsecs: 609355926
  frame_id: ''
data: [-2.2473174851385975, -25.776448364317353, 260.85555395155035, 0.26846590909090912, 0.25691287878787877, -0.39526515151515151]
---
header: 
  seq: 29226
  stamp: 
    secs: 1401812596
    nsecs: 617357969
  frame_id: ''
data: [-2.2400996689227122, -25.783998693857431, 260.85611223431397, 0.26799242424242425, 0.2577651515151515, -0.39564393939393938]
---
header: 
  seq: 29227
  stamp: 
    secs: 1401812596
    nsecs: 625360965
  frame_id: ''
data: [-2.2339364277632279, -25.788923915543364, 260.86648162423921, 0.26789772727272726, 0.2577651515151515, -0.39611742424242424]
---
header: 
  seq: 29228
  stamp: 
    secs: 1401812596
    nsecs: 633363008
  frame_id: ''
data: [-2.2286736806311578, -25.796934402285999, 260.87761889673794, 0.26770833333333333, 0.25767045454545456, -0.39621212121212124]
---
header: 
  seq: 29229
  stamp: 
    secs: 1401812596
    nsecs: 645359039
  frame_id: ''
data: [-2.225701809048779, -25.803013523985491, 260.87951918231892, 0.26761363636363639, 0.25804924242424243, -0.39564393939393938]
---
header: 
  seq: 29230
  stamp: 
    secs: 1401812596
    nsecs: 652856111
  frame_id: ''
data: [-2.2239251244595764, -25.805160541716795, 260.88494669795932, 0.26770833333333333, 0.25795454545454544, -0.39517045454545452]
---
header: 
  seq: 29231
  stamp: 
    secs: 1401812596
    nsecs: 664849996
  frame_id: ''
data: [-2.218603150813748, -25.808515814858264, 260.89947389068578, 0.26751893939393939, 0.25748106060606063, -0.39592803030303031]
---
header: 
  seq: 29232
  stamp: 
    secs: 1401812596
    nsecs: 672851085
  frame_id: ''
data: [-2.2148197310385527, -25.816707684073219, 260.9103566054788, 0.26676136363636366, 0.25833333333333336, -0.39602272727272725]
---
header: 
  seq: 29233
  stamp: 
    secs: 1401812596
    nsecs: 684848070
  frame_id: ''
data: [-2.2123500713062776, -25.818375836354644, 260.92802000317869, 0.26732954545454546, 0.2578598484848485, -0.39573863636363638]
---
header: 
  seq: 29234
  stamp: 
    secs: 1401812596
    nsecs: 692857980
  frame_id: ''
data: [-2.2140461221914411, -25.817517334244066, 260.92560022365137, 0.26714015151515152, 0.25729166666666664, -0.39545454545454545]
---
header: 
  seq: 29235
  stamp: 
    secs: 1401812596
    nsecs: 704854965
  frame_id: ''
data: [-2.2132114424971885, -25.81450134018872, 260.928860817084, 0.26695075757575759, 0.25729166666666664, -0.39488636363636365]
---
header: 
  seq: 29236
  stamp: 
    secs: 1401812596
    nsecs: 712848901
  frame_id: ''
data: [-2.2155426159331908, -25.805838203835776, 260.92707916367533, 0.26704545454545453, 0.25691287878787877, -0.39460227272727272]
---
header: 
  seq: 29237
  stamp: 
    secs: 1401812596
    nsecs: 720854043
  frame_id: ''
data: [-2.2167722130005667, -25.796918864044812, 260.93316757369479, 0.26695075757575759, 0.25643939393939397, -0.39441287878787878]
---
header: 
  seq: 29238
  stamp: 
    secs: 1401812596
    nsecs: 732848882
  frame_id: ''
data: [-2.2163002068590441, -25.790824654388881, 260.93303959735459, 0.26657196969696972, 0.25634469696969697, -0.39422348484848485]
---
header: 
  seq: 29239
  stamp: 
    secs: 1401812596
    nsecs: 740854978
  frame_id: ''
data: [-2.2174191144229103, -25.781055002157601, 260.92912544378015, 0.2668560606060606, 0.25672348484848484, -0.39450757575757578]
---
header: 
  seq: 29240
  stamp: 
    secs: 1401812596
    nsecs: 752854108
  frame_id: ''
data: [-2.2183745415140161, -25.776517642148377, 260.93339292730309, 0.2668560606060606, 0.2566287878787879, -0.39450757575757578]
---
header: 
  seq: 29241
  stamp: 
    secs: 1401812596
    nsecs: 760847091
  frame_id: ''
data: [-2.2169074485087696, -25.77340419829315, 260.92942714967239, 0.26666666666666666, 0.25681818181818183, -0.39469696969696971]
---
header: 
  seq: 29242
  stamp: 
    secs: 1401812596
    nsecs: 772847890
  frame_id: ''
data: [-2.2148937332826195, -25.769223700861343, 260.93212860158582, 0.2661931818181818, 0.2571969696969697, -0.39469696969696971]
---
header: 
  seq: 29243
  stamp: 
    secs: 1401812596
    nsecs: 781352996
  frame_id: ''
data: [-2.2162181367896938, -25.76869790468556, 260.93976217757421, 0.2662878787878788, 0.25700757575757577, -0.39460227272727272]
---
header: 
  seq: 29244
  stamp: 
    secs: 1401812596
    nsecs: 793356895
  frame_id: ''
data: [-2.2143051349820184, -25.766726980926336, 260.94095360729995, 0.26647727272727273, 0.25757575757575757, -0.39479166666666665]
---
header: 
  seq: 29245
  stamp: 
    secs: 1401812596
    nsecs: 801363945
  frame_id: ''
data: [-2.2119106614486035, -25.765804998457227, 260.95262461194557, 0.26647727272727273, 0.2577651515151515, -0.39488636363636365]
---
header: 
  seq: 29246
  stamp: 
    secs: 1401812596
    nsecs: 813359022
  frame_id: ''
data: [-2.2121489630856059, -25.767300649583753, 260.95498064755361, 0.26600378787878787, 0.25767045454545456, -0.39517045454545452]
---
header: 
  seq: 29247
  stamp: 
    secs: 1401812596
    nsecs: 821357011
  frame_id: ''
data: [-2.2100695218322128, -25.769338750383493, 260.9554704991499, 0.26638257575757573, 0.2577651515151515, -0.39498106060606059]
---
header: 
  seq: 29248
  stamp: 
    secs: 1401812596
    nsecs: 833354949
  frame_id: ''
data: [-2.2098158521585378, -25.76879614464195, 260.94980097908933, 0.26657196969696972, 0.25757575757575757, -0.39488636363636365]
---
header: 
  seq: 29249
  stamp: 
    secs: 1401812596
    nsecs: 841357946
  frame_id: ''
data: [-2.2111211956560726, -25.768332817516459, 260.95485249314305, 0.26666666666666666, 0.25691287878787877, -0.39469696969696971]
---
header: 
  seq: 29250
  stamp: 
    secs: 1401812596
    nsecs: 853353977
  frame_id: ''
data: [-2.2152797194461677, -25.767176210728589, 260.95155619352249, 0.26704545454545453, 0.25634469696969697, -0.39441287878787878]
---
header: 
  seq: 29251
  stamp: 
    secs: 1401812596
    nsecs: 861362934
  frame_id: ''
data: [-2.2188306528890838, -25.766949567642556, 260.95330735767504, 0.26666666666666666, 0.25672348484848484, -0.39422348484848485]
---
header: 
  seq: 29252
  stamp: 
    secs: 1401812596
    nsecs: 873358964
  frame_id: ''
data: [-2.2226237444211834, -25.768277988948164, 260.94719291309991, 0.26676136363636366, 0.25653409090909091, -0.39441287878787878]
---
header: 
  seq: 29253
  stamp: 
    secs: 1401812596
    nsecs: 881356954
  frame_id: ''
data: [-2.2266236129974355, -25.76941231831081, 260.94121085791863, 0.26714015151515152, 0.25615530303030304, -0.39450757575757578]
---
header: 
  seq: 29254
  stamp: 
    secs: 1401812596
    nsecs: 893352985
  frame_id: ''
data: [-2.2315610220992026, -25.76961993886427, 260.93990769968678, 0.2668560606060606, 0.2566287878787879, -0.39412878787878786]
---
header: 
  seq: 29255
  stamp: 
    secs: 1401812596
    nsecs: 900847911
  frame_id: ''
data: [-2.2357770400867834, -25.763709423753689, 260.94183884268159, 0.2674242424242424, 0.25643939393939397, -0.39393939393939392]
---
header: 
  seq: 29256
  stamp: 
    secs: 1401812596
    nsecs: 910300970
  frame_id: ''
data: [-2.2378551172092878, -25.759423452670571, 260.93663905584089, 0.26695075757575759, 0.25615530303030304, -0.39412878787878786]
---
header: 
  seq: 29257
  stamp: 
    secs: 1401812596
    nsecs: 921371936
  frame_id: ''
data: [-2.2388685971617344, -25.756524668004509, 260.92763314479441, 0.2668560606060606, 0.25643939393939397, -0.39422348484848485]
---
header: 
  seq: 29258
  stamp: 
    secs: 1401812596
    nsecs: 929371118
  frame_id: ''
data: [-2.2397340003765578, -25.754049416705225, 260.92298696276896, 0.26666666666666666, 0.25700757575757577, -0.39412878787878786]
---
header: 
  seq: 29259
  stamp: 
    secs: 1401812596
    nsecs: 941356897
  frame_id: ''
data: [-2.2412339370344183, -25.753457767690819, 260.92358547208119, 0.26676136363636366, 0.25606060606060604, -0.39441287878787878]
---
header: 
  seq: 29260
  stamp: 
    secs: 1401812596
    nsecs: 949369907
  frame_id: ''
data: [-2.2447976474190083, -25.75219158776839, 260.91648678385917, 0.26714015151515152, 0.25643939393939397, -0.39450757575757578]
---
header: 
  seq: 29261
  stamp: 
    secs: 1401812596
    nsecs: 961354017
  frame_id: ''
data: [-2.2440357984876251, -25.751110405873508, 260.90738136483247, 0.26704545454545453, 0.25643939393939397, -0.39450757575757578]
---
header: 
  seq: 29262
  stamp: 
    secs: 1401812596
    nsecs: 973491907
  frame_id: ''
data: [-2.2449072113856783, -25.753992067960244, 260.91254288996487, 0.26695075757575759, 0.25643939393939397, -0.39431818181818185]
---
header: 
  seq: 29263
  stamp: 
    secs: 1401812596
    nsecs: 981367111
  frame_id: ''
data: [-2.2464122796686632, -25.756452698412652, 260.91466735371216, 0.26704545454545453, 0.25634469696969697, -0.39450757575757578]
---
header: 
  seq: 29264
  stamp: 
    secs: 1401812596
    nsecs: 989363908
  frame_id: ''
data: [-2.2469364715097417, -25.757031862791465, 260.91343751756779, 0.26647727272727273, 0.25643939393939397, -0.39431818181818185]
---
header: 
  seq: 29265
  stamp: 
    secs: 1401812596
    nsecs: 997366905
  frame_id: ''
data: [-2.2489060253391431, -25.756004456872816, 260.91162639426233, 0.26676136363636366, 0.25691287878787877, -0.39422348484848485]
---
header: 
  seq: 29266
  stamp: 
    secs: 1401812597
    nsecs: 9355068
  frame_id: ''
data: [-2.2483048878344873, -25.753605212175408, 260.90627501364531, 0.26723484848484846, 0.25643939393939397, -0.39403409090909092]
---
header: 
  seq: 29267
  stamp: 
    secs: 1401812597
    nsecs: 17363071
  frame_id: ''
data: [-2.247791580859027, -25.748512614047893, 260.90779330917172, 0.26676136363636366, 0.25672348484848484, -0.39422348484848485]
---
header: 
  seq: 29268
  stamp: 
    secs: 1401812597
    nsecs: 29367923
  frame_id: ''
data: [-2.2488752219389552, -25.747207981672737, 260.90452392015902, 0.26676136363636366, 0.25643939393939397, -0.39403409090909092]
---
header: 
  seq: 29269
  stamp: 
    secs: 1401812597
    nsecs: 37369012
  frame_id: ''
data: [-2.2498005352340238, -25.748376890806934, 260.90097123738337, 0.26714015151515152, 0.25596590909090911, -0.39403409090909092]
---
header: 
  seq: 29270
  stamp: 
    secs: 1401812597
    nsecs: 49345970
  frame_id: ''
data: [-2.2498296784763201, -25.748614038777681, 260.9009815276101, 0.26695075757575759, 0.25653409090909091, -0.39403409090909092]
---
header: 
  seq: 29271
  stamp: 
    secs: 1401812597
    nsecs: 57358026
  frame_id: ''
data: [-2.2513765138811035, -25.74957751281816, 260.90251226456098, 0.26714015151515152, 0.25634469696969697, -0.39422348484848485]
---
header: 
  seq: 29272
  stamp: 
    secs: 1401812597
    nsecs: 69360017
  frame_id: ''
data: [-2.2534583205665379, -25.754966066947496, 260.89392667348881, 0.26780303030303032, 0.25643939393939397, -0.39441287878787878]
---
header: 
  seq: 29273
  stamp: 
    secs: 1401812597
    nsecs: 77354907
  frame_id: ''
data: [-2.2506701096643975, -25.75804536421661, 260.88431257395297, 0.26723484848484846, 0.25700757575757577, -0.39507575757575758]
---
header: 
  seq: 29274
  stamp: 
    secs: 1401812597
    nsecs: 89350938
  frame_id: ''
data: [-2.2444844010024187, -25.759152803723893, 260.87914706416711, 0.26714015151515152, 0.25748106060606063, -0.39498106060606059]
---
header: 
  seq: 29275
  stamp: 
    secs: 1401812597
    nsecs: 97373008
  frame_id: ''
data: [-2.2384414939318771, -25.75857648812369, 260.87778017305328, 0.26704545454545453, 0.25691287878787877, -0.39507575757575758]
---
header: 
  seq: 29276
  stamp: 
    secs: 1401812597
    nsecs: 109345912
  frame_id: ''
data: [-2.2340424743099221, -25.755040475992089, 260.87965689500027, 0.26704545454545453, 0.25691287878787877, -0.39469696969696971]
---
header: 
  seq: 29277
  stamp: 
    secs: 1401812597
    nsecs: 117356061
  frame_id: ''
data: [-2.2333300836135406, -25.748977200359132, 260.88202038942256, 0.26666666666666666, 0.25653409090909091, -0.39431818181818185]
---
header: 
  seq: 29278
  stamp: 
    secs: 1401812597
    nsecs: 129386901
  frame_id: ''
data: [-2.2350047036417, -25.745321763269065, 260.8764288092442, 0.26647727272727273, 0.25624999999999998, -0.39412878787878786]
---
header: 
  seq: 29279
  stamp: 
    secs: 1401812597
    nsecs: 137382030
  frame_id: ''
data: [-2.2356736744939458, -25.739917486626524, 260.87926395029984, 0.26676136363636366, 0.25624999999999998, -0.39393939393939392]
---
header: 
  seq: 29280
  stamp: 
    secs: 1401812597
    nsecs: 149383068
  frame_id: ''
data: [-2.2362449038752068, -25.734541838716023, 260.88625070738141, 0.26647727272727273, 0.25643939393939397, -0.39393939393939392]
---
header: 
  seq: 29281
  stamp: 
    secs: 1401812597
    nsecs: 157371044
  frame_id: ''
data: [-2.2374936476203042, -25.732234537074291, 260.88993372351325, 0.26647727272727273, 0.25587121212121211, -0.39374999999999999]
---
header: 
  seq: 29282
  stamp: 
    secs: 1401812597
    nsecs: 169372081
  frame_id: ''
data: [-2.237798965788953, -25.728742398658838, 260.89307862439961, 0.2668560606060606, 0.25634469696969697, -0.39365530303030305]
---
header: 
  seq: 29283
  stamp: 
    secs: 1401812597
    nsecs: 177381038
  frame_id: ''
data: [-2.2372986996687025, -25.724238536675944, 260.88739330645944, 0.26657196969696972, 0.25643939393939397, -0.39384469696969698]
---
header: 
  seq: 29284
  stamp: 
    secs: 1401812597
    nsecs: 189352035
  frame_id: ''
data: [-2.2376325011404594, -25.72267564674415, 260.89243133081789, 0.2662878787878788, 0.25624999999999998, -0.39337121212121212]
---
header: 
  seq: 29285
  stamp: 
    secs: 1401812597
    nsecs: 197371006
  frame_id: ''
data: [-2.237156556707105, -25.722102081414583, 260.89292838794529, 0.26647727272727273, 0.25653409090909091, -0.39431818181818185]
---
header: 
  seq: 29286
  stamp: 
    secs: 1401812597
    nsecs: 205363988
  frame_id: ''
data: [-2.2344672258905591, -25.72237329322067, 260.90781134834356, 0.2662878787878788, 0.25634469696969697, -0.39431818181818185]
---
header: 
  seq: 29287
  stamp: 
    secs: 1401812597
    nsecs: 217452049
  frame_id: ''
data: [-2.2367366763230154, -25.720321953723072, 260.90453932367762, 0.26657196969696972, 0.2566287878787879, -0.39403409090909092]
---
header: 
  seq: 29288
  stamp: 
    secs: 1401812597
    nsecs: 225379943
  frame_id: ''
data: [-2.2371525934629677, -25.722375205236666, 260.90326731563755, 0.2662878787878788, 0.25700757575757577, -0.39431818181818185]
---
header: 
  seq: 29289
  stamp: 
    secs: 1401812597
    nsecs: 241475105
  frame_id: ''
data: [-2.234463841705002, -25.724128461881175, 260.90826895795738, 0.26609848484848486, 0.25691287878787877, -0.39460227272727272]
---
header: 
  seq: 29290
  stamp: 
    secs: 1401812597
    nsecs: 249476909
  frame_id: ''
data: [-2.2329289110899508, -25.723342629771846, 260.90949592382503, 0.2662878787878788, 0.25653409090909091, -0.39460227272727272]
---
header: 
  seq: 29291
  stamp: 
    secs: 1401812597
    nsecs: 257405042
  frame_id: ''
data: [-2.2323792200191046, -25.72419356360739, 260.90902167092105, 0.26638257575757573, 0.25681818181818183, -0.39412878787878786]
---
header: 
  seq: 29292
  stamp: 
    secs: 1401812597
    nsecs: 264852046
  frame_id: ''
data: [-2.2326708178823593, -25.724920169866454, 260.91318256039182, 0.26638257575757573, 0.25672348484848484, -0.39422348484848485]
---
header: 
  seq: 29293
  stamp: 
    secs: 1401812597
    nsecs: 276853084
  frame_id: ''
data: [-2.2336807862929628, -25.724018663504932, 260.91445258857152, 0.26590909090909093, 0.2566287878787879, -0.39374999999999999]
---
header: 
  seq: 29294
  stamp: 
    secs: 1401812597
    nsecs: 284864902
  frame_id: ''
data: [-2.2345431910275568, -25.721726923530454, 260.91401510626491, 0.26666666666666666, 0.25634469696969697, -0.39374999999999999]
---
header: 
  seq: 29295
  stamp: 
    secs: 1401812597
    nsecs: 294271945
  frame_id: ''
data: [-2.2360405673047961, -25.722052948611772, 260.90831471757957, 0.26638257575757573, 0.25643939393939397, -0.39403409090909092]
---
header: 
  seq: 29296
  stamp: 
    secs: 1401812597
    nsecs: 306269884
  frame_id: ''
data: [-2.2396020913988575, -25.720048413774183, 260.90116427153288, 0.26695075757575759, 0.25615530303030304, -0.39365530303030305]
---
header: 
  seq: 29297
  stamp: 
    secs: 1401812597
    nsecs: 314270973
  frame_id: ''
data: [-2.2434042262115135, -25.719858706148194, 260.89962440787622, 0.26695075757575759, 0.25568181818181818, -0.39327651515151513]
---
header: 
  seq: 29298
  stamp: 
    secs: 1401812597
    nsecs: 326828002
  frame_id: ''
data: [-2.2436069412782986, -25.71969671617591, 260.89298270371444, 0.26714015151515152, 0.25606060606060604, -0.39403409090909092]
---
header: 
  seq: 29299
  stamp: 
    secs: 1401812597
    nsecs: 334270954
  frame_id: ''
data: [-2.2460629635112435, -25.716514493706864, 260.90024797718377, 0.26676136363636366, 0.25587121212121211, -0.39356060606060606]
---
header: 
  seq: 29300
  stamp: 
    secs: 1401812597
    nsecs: 345372915
  frame_id: ''
data: [-2.2473991680650132, -25.715319167114401, 260.90036394094705, 0.2668560606060606, 0.25568181818181818, -0.39374999999999999]
---
header: 
  seq: 29301
  stamp: 
    secs: 1401812597
    nsecs: 357368946
  frame_id: ''
data: [-2.2477791683867854, -25.713537511266178, 260.8974190611662, 0.26676136363636366, 0.25624999999999998, -0.39365530303030305]
---
header: 
  seq: 29302
  stamp: 
    secs: 1401812597
    nsecs: 365370988
  frame_id: ''
data: [-2.2465816977176476, -25.712016168199611, 260.89490444958119, 0.26695075757575759, 0.25549242424242424, -0.39356060606060606]
---
header: 
  seq: 29303
  stamp: 
    secs: 1401812597
    nsecs: 377370119
  frame_id: ''
data: [-2.2440372359575385, -25.71071710433803, 260.88895236540094, 0.26704545454545453, 0.25587121212121211, -0.39384469696969698]
---
header: 
  seq: 29304
  stamp: 
    secs: 1401812597
    nsecs: 384840011
  frame_id: ''
data: [-2.2426255135299908, -25.709607843084903, 260.88234797348844, 0.26704545454545453, 0.25587121212121211, -0.39393939393939392]
---
header: 
  seq: 29305
  stamp: 
    secs: 1401812597
    nsecs: 394834041
  frame_id: ''
data: [-2.2437029792415619, -25.710182603109477, 260.87899145621401, 0.2674242424242424, 0.25615530303030304, -0.39356060606060606]
---
header: 
  seq: 29306
  stamp: 
    secs: 1401812597
    nsecs: 402834892
  frame_id: ''
data: [-2.2415791190330134, -25.708390461244253, 260.87079852464291, 0.2674242424242424, 0.25568181818181818, -0.39365530303030305]
---
header: 
  seq: 29307
  stamp: 
    secs: 1401812597
    nsecs: 414845943
  frame_id: ''
data: [-2.2420484954344926, -25.706860164243466, 260.86532458972181, 0.26751893939393939, 0.25577651515151517, -0.39412878787878786]
---
header: 
  seq: 29308
  stamp: 
    secs: 1401812597
    nsecs: 426278114
  frame_id: ''
data: [-2.2432102676554573, -25.704792479581812, 260.86065043621039, 0.26770833333333333, 0.25596590909090911, -0.39403409090909092]
---
header: 
  seq: 29309
  stamp: 
    secs: 1401812597
    nsecs: 434272050
  frame_id: ''
data: [-2.2426803463672291, -25.704548848776948, 260.86579091147439, 0.26751893939393939, 0.25577651515151517, -0.39384469696969698]
---
header: 
  seq: 29310
  stamp: 
    secs: 1401812597
    nsecs: 445266008
  frame_id: ''
data: [-2.242988825505138, -25.703579839091219, 260.85572179928641, 0.2674242424242424, 0.25615530303030304, -0.39403409090909092]
---
header: 
  seq: 29311
  stamp: 
    secs: 1401812597
    nsecs: 452832937
  frame_id: ''
data: [-2.2440132087142981, -25.701991433615813, 260.85701653338435, 0.26770833333333333, 0.25596590909090911, -0.39374999999999999]
---
header: 
  seq: 29312
  stamp: 
    secs: 1401812597
    nsecs: 464824914
  frame_id: ''
data: [-2.2456488972416055, -25.700635105647468, 260.85507819708238, 0.2674242424242424, 0.25606060606060604, -0.39384469696969698]
---
header: 
  seq: 29313
  stamp: 
    secs: 1401812597
    nsecs: 472836017
  frame_id: ''
data: [-2.2447626745657505, -25.702520847388136, 260.85722794120892, 0.26723484848484846, 0.25587121212121211, -0.39365530303030305]
---
header: 
  seq: 29314
  stamp: 
    secs: 1401812597
    nsecs: 484829902
  frame_id: ''
data: [-2.2455278856212852, -25.701848143345973, 260.86667334320191, 0.26723484848484846, 0.25606060606060604, -0.39356060606060606]
---
header: 
  seq: 29315
  stamp: 
    secs: 1401812597
    nsecs: 493360996
  frame_id: ''
data: [-2.2454203187170627, -25.701273726220791, 260.87169480337383, 0.2668560606060606, 0.25606060606060604, -0.39356060606060606]
---
header: 
  seq: 29316
  stamp: 
    secs: 1401812597
    nsecs: 505357980
  frame_id: ''
data: [-2.2468504183146796, -25.701544210684752, 260.87750454216399, 0.26723484848484846, 0.25596590909090911, -0.39356060606060606]
---
header: 
  seq: 29317
  stamp: 
    secs: 1401812597
    nsecs: 513372898
  frame_id: ''
data: [-2.2457886447359607, -25.701775175415833, 260.87637763537259, 0.2674242424242424, 0.25577651515151517, -0.39356060606060606]
---
header: 
  seq: 29318
  stamp: 
    secs: 1401812597
    nsecs: 522311925
  frame_id: ''
data: [-2.2479259043434663, -25.700450444331729, 260.87617635289917, 0.26723484848484846, 0.25606060606060604, -0.39374999999999999]
---
header: 
  seq: 29319
  stamp: 
    secs: 1401812597
    nsecs: 533979892
  frame_id: ''
data: [-2.2497508948928919, -25.700841216223164, 260.87980935474968, 0.26704545454545453, 0.25549242424242424, -0.39365530303030305]
---
header: 
  seq: 29320
  stamp: 
    secs: 1401812597
    nsecs: 548362016
  frame_id: ''
data: [-2.2497872909473937, -25.701174893520179, 260.88138959860169, 0.26723484848484846, 0.25606060606060604, -0.39374999999999999]
---
header: 
  seq: 29321
  stamp: 
    secs: 1401812597
    nsecs: 552916049
  frame_id: ''
data: [-2.2521012945764496, -25.699937867954617, 260.8819779823184, 0.26714015151515152, 0.25606060606060604, -0.39374999999999999]
---
header: 
  seq: 29322
  stamp: 
    secs: 1401812597
    nsecs: 566242933
  frame_id: ''
data: [-2.2548381806702062, -25.698881580754588, 260.88628527442785, 0.26723484848484846, 0.25587121212121211, -0.39356060606060606]
---
header: 
  seq: 29323
  stamp: 
    secs: 1401812597
    nsecs: 576360940
  frame_id: ''
data: [-2.254131287546226, -25.701023525141249, 260.89529006576674, 0.26676136363636366, 0.25568181818181818, -0.39346590909090912]
---
header: 
  seq: 29324
  stamp: 
    secs: 1401812597
    nsecs: 581041097
  frame_id: ''
data: [-2.255049626811481, -25.701330565789196, 260.89765236638107, 0.26666666666666666, 0.25634469696969697, -0.39356060606060606]
---
header: 
  seq: 29325
  stamp: 
    secs: 1401812597
    nsecs: 593442916
  frame_id: ''
data: [-2.2550728149800667, -25.702353720682162, 260.89814756762104, 0.26657196969696972, 0.25587121212121211, -0.39356060606060606]
---
header: 
  seq: 29326
  stamp: 
    secs: 1401812597
    nsecs: 601866006
  frame_id: ''
data: [-2.2543316400895308, -25.703988360359141, 260.89857041638487, 0.26666666666666666, 0.25587121212121211, -0.39356060606060606]
---
header: 
  seq: 29327
  stamp: 
    secs: 1401812597
    nsecs: 613856077
  frame_id: ''
data: [-2.2544597313015231, -25.704623192278142, 260.89893148389166, 0.26647727272727273, 0.25606060606060604, -0.39356060606060606]
---
header: 
  seq: 29328
  stamp: 
    secs: 1401812597
    nsecs: 621856927
  frame_id: ''
data: [-2.2576130078638785, -25.703643320470182, 260.90076174702961, 0.26676136363636366, 0.25568181818181818, -0.39356060606060606]
---
header: 
  seq: 29329
  stamp: 
    secs: 1401812597
    nsecs: 633265972
  frame_id: ''
data: [-2.2603055679561646, -25.7035675901076, 260.90232459550998, 0.26704545454545453, 0.25577651515151517, -0.39356060606060606]
---
header: 
  seq: 29330
  stamp: 
    secs: 1401812597
    nsecs: 641859054
  frame_id: ''
data: [-2.2587998500792397, -25.703502924497709, 260.90213715034417, 0.26676136363636366, 0.25577651515151517, -0.39374999999999999]
---
header: 
  seq: 29331
  stamp: 
    secs: 1401812597
    nsecs: 653856992
  frame_id: ''
data: [-2.2597970537551646, -25.70420868210055, 260.91034781837351, 0.26657196969696972, 0.25596590909090911, -0.39346590909090912]
---
header: 
  seq: 29332
  stamp: 
    secs: 1401812597
    nsecs: 661856889
  frame_id: ''
data: [-2.2606485587749687, -25.703289373221992, 260.90898812242563, 0.26704545454545453, 0.25596590909090911, -0.39356060606060606]
---
header: 
  seq: 29333
  stamp: 
    secs: 1401812597
    nsecs: 669858932
  frame_id: ''
data: [-2.2590927274632779, -25.706309257508764, 260.90782708787174, 0.26666666666666666, 0.25577651515151517, -0.39374999999999999]
---
header: 
  seq: 29334
  stamp: 
    secs: 1401812597
    nsecs: 681854963
  frame_id: ''
data: [-2.2585251894384588, -25.705083039398474, 260.90531373864741, 0.26666666666666666, 0.25606060606060604, -0.39374999999999999]
---
header: 
  seq: 29335
  stamp: 
    secs: 1401812597
    nsecs: 689857959
  frame_id: ''
data: [-2.258040572816268, -25.706318905907349, 260.89936273238783, 0.26676136363636366, 0.25577651515151517, -0.39374999999999999]
---
header: 
  seq: 29336
  stamp: 
    secs: 1401812597
    nsecs: 701865911
  frame_id: ''
data: [-2.2576267621811503, -25.704330302996084, 260.90112998700721, 0.26676136363636366, 0.25577651515151517, -0.39346590909090912]
---
header: 
  seq: 29337
  stamp: 
    secs: 1401812597
    nsecs: 709855079
  frame_id: ''
data: [-2.2549904869663591, -25.701871274226097, 260.90187805786815, 0.26666666666666666, 0.25587121212121211, -0.39374999999999999]
---
header: 
  seq: 29338
  stamp: 
    secs: 1401812597
    nsecs: 721854925
  frame_id: ''
data: [-2.2557832909935525, -25.701293477512341, 260.90327780527605, 0.26657196969696972, 0.25587121212121211, -0.39327651515151513]
---
header: 
  seq: 29339
  stamp: 
    secs: 1401812597
    nsecs: 729862928
  frame_id: ''
data: [-2.2549383104283383, -25.701561076170016, 260.90142913908136, 0.26714015151515152, 0.25587121212121211, -0.39365530303030305]
---
header: 
  seq: 29340
  stamp: 
    secs: 1401812597
    nsecs: 741852045
  frame_id: ''
data: [-2.2542167876238328, -25.703311526932524, 260.90746032736661, 0.26647727272727273, 0.25596590909090911, -0.39356060606060606]
---
header: 
  seq: 29341
  stamp: 
    secs: 1401812597
    nsecs: 749864101
  frame_id: ''
data: [-2.2558836098107919, -25.704045249101387, 260.90652251470038, 0.26676136363636366, 0.25596590909090911, -0.39356060606060606]
---
header: 
  seq: 29342
  stamp: 
    secs: 1401812597
    nsecs: 761857986
  frame_id: ''
data: [-2.257306897243021, -25.704671769164452, 260.90572172323499, 0.26676136363636366, 0.25596590909090911, -0.39365530303030305]
---
header: 
  seq: 29343
  stamp: 
    secs: 1401812597
    nsecs: 769856929
  frame_id: ''
data: [-2.2562393068054565, -25.703684799922716, 260.91493060948761, 0.26676136363636366, 0.25606060606060604, -0.39327651515151513]
---
header: 
  seq: 29344
  stamp: 
    secs: 1401812597
    nsecs: 781852006
  frame_id: ''
data: [-2.2560886741383182, -25.702842034012377, 260.91061840937277, 0.26666666666666666, 0.25596590909090911, -0.39374999999999999]
---
header: 
  seq: 29345
  stamp: 
    secs: 1401812597
    nsecs: 789856910
  frame_id: ''
data: [-2.2559600499913044, -25.704405327586553, 260.90769722792589, 0.26647727272727273, 0.25558712121212124, -0.39374999999999999]
---
header: 
  seq: 29346
  stamp: 
    secs: 1401812597
    nsecs: 801853895
  frame_id: ''
data: [-2.2550892436604504, -25.703457287382857, 260.90976870277888, 0.2662878787878788, 0.25615530303030304, -0.39327651515151513]
---
header: 
  seq: 29347
  stamp: 
    secs: 1401812597
    nsecs: 809864044
  frame_id: ''
data: [-2.2551066435213976, -25.701886787596774, 260.91153752020136, 0.26657196969696972, 0.25587121212121211, -0.39365530303030305]
---
header: 
  seq: 29348
  stamp: 
    secs: 1401812597
    nsecs: 821860074
  frame_id: ''
data: [-2.255882476237336, -25.702067699367856, 260.91456985082942, 0.2662878787878788, 0.25568181818181818, -0.39365530303030305]
---
header: 
  seq: 29349
  stamp: 
    secs: 1401812597
    nsecs: 829855918
  frame_id: ''
data: [-2.2557839790922514, -25.702983153723427, 260.9049835344569, 0.2661931818181818, 0.25624999999999998, -0.39356060606060606]
---
header: 
  seq: 29350
  stamp: 
    secs: 1401812597
    nsecs: 841851949
  frame_id: ''
data: [-2.2541779228905603, -25.700720953187588, 260.91353930031886, 0.26647727272727273, 0.25558712121212124, -0.39356060606060606]
---
header: 
  seq: 29351
  stamp: 
    secs: 1401812597
    nsecs: 849862098
  frame_id: ''
data: [-2.2543284732950459, -25.701833176882598, 260.9147572062198, 0.26638257575757573, 0.25568181818181818, -0.39374999999999999]
---
header: 
  seq: 29352
  stamp: 
    secs: 1401812597
    nsecs: 861859083
  frame_id: ''
data: [-2.2536960520982845, -25.70354387176663, 260.9112313166745, 0.26657196969696972, 0.25606060606060604, -0.39365530303030305]
---
header: 
  seq: 29353
  stamp: 
    secs: 1401812597
    nsecs: 869874000
  frame_id: ''
data: [-2.25391700730427, -25.703482671577582, 260.91735228624958, 0.26657196969696972, 0.25587121212121211, -0.39365530303030305]
---
header: 
  seq: 29354
  stamp: 
    secs: 1401812597
    nsecs: 877861976
  frame_id: ''
data: [-2.2548666544598186, -25.702669438077685, 260.91801308737917, 0.26647727272727273, 0.25577651515151517, -0.39346590909090912]
---
header: 
  seq: 29355
  stamp: 
    secs: 1401812597
    nsecs: 889853954
  frame_id: ''
data: [-2.2549165762099062, -25.704257949163932, 260.92238221619465, 0.2661931818181818, 0.25587121212121211, -0.39337121212121212]
---
header: 
  seq: 29356
  stamp: 
    secs: 1401812597
    nsecs: 897859096
  frame_id: ''
data: [-2.2526762787310393, -25.703331442011741, 260.92535200864802, 0.2661931818181818, 0.25596590909090911, -0.39374999999999999]
---
header: 
  seq: 29357
  stamp: 
    secs: 1401812597
    nsecs: 909986019
  frame_id: ''
data: [-2.2530462301879837, -25.701779329142887, 260.92180009218197, 0.26638257575757573, 0.25568181818181818, -0.39365530303030305]
---
header: 
  seq: 29358
  stamp: 
    secs: 1401812597
    nsecs: 921875000
  frame_id: ''
data: [-2.2541231041665841, -25.702736916470144, 260.9172451861532, 0.26647727272727273, 0.25558712121212124, -0.39346590909090912]
---
header: 
  seq: 29359
  stamp: 
    secs: 1401812597
    nsecs: 928911924
  frame_id: ''
data: [-2.2550426390826828, -25.702793618275532, 260.91639968517944, 0.26638257575757573, 0.25568181818181818, -0.39346590909090912]
---
header: 
  seq: 29360
  stamp: 
    secs: 1401812597
    nsecs: 940907001
  frame_id: ''
data: [-2.2558278233091817, -25.702081060437518, 260.91415576780128, 0.2661931818181818, 0.25577651515151517, -0.39327651515151513]
---
header: 
  seq: 29361
  stamp: 
    secs: 1401812597
    nsecs: 950092077
  frame_id: ''
data: [-2.2564982864517433, -25.702233587544065, 260.92669822985698, 0.2661931818181818, 0.25568181818181818, -0.39308712121212119]
---
header: 
  seq: 29362
  stamp: 
    secs: 1401812597
    nsecs: 957097053
  frame_id: ''
data: [-2.2563098149886422, -25.700080904038341, 260.91914474525214, 0.2662878787878788, 0.25587121212121211, -0.39356060606060606]
---
header: 
  seq: 29363
  stamp: 
    secs: 1401812597
    nsecs: 968892097
  frame_id: ''
data: [-2.2561488805669239, -25.699764693334156, 260.91802170498062, 0.2662878787878788, 0.25568181818181818, -0.39346590909090912]
---
header: 
  seq: 29364
  stamp: 
    secs: 1401812597
    nsecs: 977046966
  frame_id: ''
data: [-2.2567724349263352, -25.700255658396948, 260.91554079879973, 0.2661931818181818, 0.25520833333333331, -0.39356060606060606]
---
header: 
  seq: 29365
  stamp: 
    secs: 1401812597
    nsecs: 989309072
  frame_id: ''
data: [-2.2557829332916586, -25.699913914819376, 260.91494432112273, 0.26657196969696972, 0.25539772727272725, -0.39346590909090912]
---
header: 
  seq: 29366
  stamp: 
    secs: 1401812598
    nsecs: 360965
  frame_id: ''
data: [-2.2549380049892735, -25.698861127345332, 260.91595694334103, 0.26666666666666666, 0.25606060606060604, -0.39337121212121212]
---
header: 
  seq: 29367
  stamp: 
    secs: 1401812598
    nsecs: 8361101
  frame_id: ''
data: [-2.2580214023130689, -25.697962159721587, 260.92062648964435, 0.26647727272727273, 0.25587121212121211, -0.39318181818181819]
---
header: 
  seq: 29368
  stamp: 
    secs: 1401812598
    nsecs: 24363994
  frame_id: ''
data: [-2.2576103926268654, -25.697955512857838, 260.92080890602062, 0.26657196969696972, 0.25558712121212124, -0.39337121212121212]
---
header: 
  seq: 29369
  stamp: 
    secs: 1401812598
    nsecs: 27244091
  frame_id: ''
data: [-2.2580204095232901, -25.696427886948289, 260.91944271984681, 0.26638257575757573, 0.25606060606060604, -0.39346590909090912]
---
header: 
  seq: 29370
  stamp: 
    secs: 1401812598
    nsecs: 44359922
  frame_id: ''
data: [-2.2583705199911304, -25.694362483112155, 260.92436394413818, 0.26600378787878787, 0.25577651515151517, -0.39327651515151513]
---
header: 
  seq: 29371
  stamp: 
    secs: 1401812598
    nsecs: 47703981
  frame_id: ''
data: [-2.2594304518923716, -25.695642750088318, 260.92247834123066, 0.26638257575757573, 0.25568181818181818, -0.39356060606060606]
---
header: 
  seq: 29372
  stamp: 
    secs: 1401812598
    nsecs: 58809995
  frame_id: ''
data: [-2.2588135698903429, -25.695974985716401, 260.92923896462378, 0.26638257575757573, 0.25615530303030304, -0.39337121212121212]
---
header: 
  seq: 29373
  stamp: 
    secs: 1401812598
    nsecs: 66806077
  frame_id: ''
data: [-2.2598087690028188, -25.696258679320724, 260.93501181213253, 0.2662878787878788, 0.25568181818181818, -0.39346590909090912]
---
header: 
  seq: 29374
  stamp: 
    secs: 1401812598
    nsecs: 76803922
  frame_id: ''
data: [-2.2606585623403652, -25.698022873441982, 260.93004852864078, 0.26657196969696972, 0.25596590909090911, -0.39356060606060606]
---
header: 
  seq: 29375
  stamp: 
    secs: 1401812598
    nsecs: 86812019
  frame_id: ''
data: [-2.258340294335262, -25.698768330965663, 260.93570309300219, 0.26600378787878787, 0.25587121212121211, -0.39337121212121212]
---
header: 
  seq: 29376
  stamp: 
    secs: 1401812598
    nsecs: 97945928
  frame_id: ''
data: [-2.2586436673227426, -25.697882921562908, 260.93216075858544, 0.26657196969696972, 0.25587121212121211, -0.39356060606060606]
---
header: 
  seq: 29377
  stamp: 
    secs: 1401812598
    nsecs: 108869075
  frame_id: ''
data: [-2.2611856406274944, -25.697887851966183, 260.93370183540173, 0.26609848484848486, 0.25577651515151517, -0.39356060606060606]
---
header: 
  seq: 29378
  stamp: 
    secs: 1401812598
    nsecs: 116866111
  frame_id: ''
data: [-2.2603123128801084, -25.697892062001944, 260.92892994896744, 0.26638257575757573, 0.25568181818181818, -0.39337121212121212]
---
header: 
  seq: 29379
  stamp: 
    secs: 1401812598
    nsecs: 128853082
  frame_id: ''
data: [-2.2610885348219707, -25.697895656921087, 260.92485526959064, 0.2662878787878788, 0.25634469696969697, -0.39356060606060606]
---
header: 
  seq: 29380
  stamp: 
    secs: 1401812598
    nsecs: 136883974
  frame_id: ''
data: [-2.2609903700340928, -25.6971377514963, 260.92898568128987, 0.26638257575757573, 0.25596590909090911, -0.39356060606060606]
---
header: 
  seq: 29381
  stamp: 
    secs: 1401812598
    nsecs: 148854017
  frame_id: ''
data: [-2.259384597629821, -25.699534481926747, 260.93631748552281, 0.26590909090909093, 0.25606060606060604, -0.39356060606060606]
---
header: 
  seq: 29382
  stamp: 
    secs: 1401812598
    nsecs: 154808998
  frame_id: ''
data: [-2.2572524650660051, -25.700820057638406, 260.93116343372276, 0.2661931818181818, 0.25606060606060604, -0.39356060606060606]
---
header: 
  seq: 29383
  stamp: 
    secs: 1401812598
    nsecs: 164855957
  frame_id: ''
data: [-2.2561928275624625, -25.701156826357405, 260.92980632650028, 0.26609848484848486, 0.25624999999999998, -0.39365530303030305]
---
header: 
  seq: 29384
  stamp: 
    secs: 1401812598
    nsecs: 176851987
  frame_id: ''
data: [-2.2552880107479818, -25.702205365835628, 260.93016945264088, 0.26609848484848486, 0.25596590909090911, -0.39346590909090912]
---
header: 
  seq: 29385
  stamp: 
    secs: 1401812598
    nsecs: 184856891
  frame_id: ''
data: [-2.2529934440016208, -25.700817780825538, 260.92895757323026, 0.26609848484848486, 0.25596590909090911, -0.39374999999999999]
---
header: 
  seq: 29386
  stamp: 
    secs: 1401812598
    nsecs: 196852922
  frame_id: ''
data: [-2.2517951051222571, -25.699632932002753, 260.93781543445419, 0.26581439393939393, 0.25624999999999998, -0.39327651515151513]
---
header: 
  seq: 29387
  stamp: 
    secs: 1401812598
    nsecs: 204863071
  frame_id: ''
data: [-2.2538157526054419, -25.698621198146704, 260.94233519780499, 0.2661931818181818, 0.25624999999999998, -0.39346590909090912]
---
header: 
  seq: 29388
  stamp: 
    secs: 1401812598
    nsecs: 216860055
  frame_id: ''
data: [-2.2524972685026037, -25.696235335710409, 260.94238971559946, 0.26647727272727273, 0.25606060606060604, -0.39356060606060606]
---
header: 
  seq: 29389
  stamp: 
    secs: 1401812598
    nsecs: 224855899
  frame_id: ''
data: [-2.2521323995459537, -25.694198065000208, 260.93939236754943, 0.26647727272727273, 0.25587121212121211, -0.39374999999999999]
---
header: 
  seq: 29390
  stamp: 
    secs: 1401812598
    nsecs: 236851930
  frame_id: ''
data: [-2.2495379152770836, -25.694741379549214, 260.93683295368811, 0.26600378787878787, 0.25587121212121211, -0.39346590909090912]
---
header: 
  seq: 29391
  stamp: 
    secs: 1401812598
    nsecs: 244855880
  frame_id: ''
data: [-2.2480834789904303, -25.693683361719703, 260.93616943886957, 0.2662878787878788, 0.25606060606060604, -0.39346590909090912]
---
header: 
  seq: 29392
  stamp: 
    secs: 1401812598
    nsecs: 256851911
  frame_id: ''
data: [-2.2483634965457835, -25.695062853234056, 260.94016871895786, 0.2661931818181818, 0.25615530303030304, -0.39384469696969698]
---
header: 
  seq: 29393
  stamp: 
    secs: 1401812598
    nsecs: 264858961
  frame_id: ''
data: [-2.249363576615071, -25.69395786577839, 260.94206172515283, 0.26600378787878787, 0.25624999999999998, -0.39346590909090912]
---
header: 
  seq: 29394
  stamp: 
    secs: 1401812598
    nsecs: 276858091
  frame_id: ''
data: [-2.2479346124655328, -25.693014324967184, 260.93911229887487, 0.26600378787878787, 0.25643939393939397, -0.39365530303030305]
---
header: 
  seq: 29395
  stamp: 
    secs: 1401812598
    nsecs: 284862995
  frame_id: ''
data: [-2.2482363804948791, -25.693730592480737, 260.94268160587109, 0.26581439393939393, 0.25596590909090911, -0.39356060606060606]
---
header: 
  seq: 29396
  stamp: 
    secs: 1401812598
    nsecs: 296852111
  frame_id: ''
data: [-2.2469721078360179, -25.695103183239929, 260.9350757599434, 0.26571969696969699, 0.25615530303030304, -0.39356060606060606]
---
header: 
  seq: 29397
  stamp: 
    secs: 1401812598
    nsecs: 304867029
  frame_id: ''
data: [-2.2458925545397239, -25.69627522858012, 260.93619093401719, 0.26581439393939393, 0.25615530303030304, -0.39384469696969698]
---
header: 
  seq: 29398
  stamp: 
    secs: 1401812598
    nsecs: 317359924
  frame_id: ''
data: [-2.2464926819741691, -25.695754079434234, 260.94475292411096, 0.26571969696969699, 0.25615530303030304, -0.39346590909090912]
---
header: 
  seq: 29399
  stamp: 
    secs: 1401812598
    nsecs: 324856996
  frame_id: ''
data: [-2.2477661015582582, -25.696831024141453, 260.94597614483848, 0.26600378787878787, 0.25539772727272725, -0.39356060606060606]
---
header: 
  seq: 29400
  stamp: 
    secs: 1401812598
    nsecs: 336858034
  frame_id: ''
data: [-2.2496144404482599, -25.700033544753076, 260.94625966908671, 0.2662878787878788, 0.25615530303030304, -0.39346590909090912]
---
header: 
  seq: 29401
  stamp: 
    secs: 1401812598
    nsecs: 344854116
  frame_id: ''
data: [-2.2504317485825118, -25.698963278482079, 260.93737006719198, 0.26638257575757573, 0.25577651515151517, -0.39374999999999999]
---
header: 
  seq: 29402
  stamp: 
    secs: 1401812598
    nsecs: 352855920
  frame_id: ''
data: [-2.2511296420979932, -25.699571336040378, 260.93662807621297, 0.26638257575757573, 0.25539772727272725, -0.39346590909090912]
---
header: 
  seq: 29403
  stamp: 
    secs: 1401812598
    nsecs: 364852905
  frame_id: ''
data: [-2.2509645932323012, -25.700090551999686, 260.934472545272, 0.26647727272727273, 0.25530303030303031, -0.39346590909090912]
---
header: 
  seq: 29404
  stamp: 
    secs: 1401812598
    nsecs: 372860908
  frame_id: ''
data: [-2.2523456093979961, -25.69672903125754, 260.93263195296288, 0.26676136363636366, 0.25558712121212124, -0.39327651515151513]
---
header: 
  seq: 29405
  stamp: 
    secs: 1401812598
    nsecs: 384860038
  frame_id: ''
data: [-2.2558077744328435, -25.696902553364659, 260.93106028447784, 0.2661931818181818, 0.25577651515151517, -0.39346590909090912]
---
header: 
  seq: 29406
  stamp: 
    secs: 1401812598
    nsecs: 392855882
  frame_id: ''
data: [-2.2564811668609761, -25.698572672839806, 260.92819629790415, 0.2662878787878788, 0.25577651515151517, -0.39356060606060606]
---
header: 
  seq: 29407
  stamp: 
    secs: 1401812598
    nsecs: 404851913
  frame_id: ''
data: [-2.2578171468942561, -25.696954875401456, 260.92955563594614, 0.26609848484848486, 0.25558712121212124, -0.39318181818181819]
---
header: 
  seq: 29408
  stamp: 
    secs: 1401812598
    nsecs: 412853002
  frame_id: ''
data: [-2.2581969554996029, -25.695573449848141, 260.93528221548854, 0.26581439393939393, 0.25587121212121211, -0.39318181818181819]
---
header: 
  seq: 29409
  stamp: 
    secs: 1401812598
    nsecs: 424851894
  frame_id: ''
data: [-2.258521271325773, -25.698959711142766, 260.9386501502176, 0.26581439393939393, 0.25568181818181818, -0.39346590909090912]
---
header: 
  seq: 29410
  stamp: 
    secs: 1401812598
    nsecs: 432861089
  frame_id: ''
data: [-2.2580372271681313, -25.697285364614224, 260.93924308006785, 0.26581439393939393, 0.25615530303030304, -0.39337121212121212]
---
header: 
  seq: 29411
  stamp: 
    secs: 1401812598
    nsecs: 444860935
  frame_id: ''
data: [-2.2568629302560699, -25.698899552602196, 260.94431522918825, 0.26534090909090907, 0.25596590909090911, -0.39356060606060606]
---
header: 
  seq: 29412
  stamp: 
    secs: 1401812598
    nsecs: 452857971
  frame_id: ''
data: [-2.2550992315001204, -25.6995169209716, 260.95701702680816, 0.26543560606060607, 0.25587121212121211, -0.39337121212121212]
---
header: 
  seq: 29413
  stamp: 
    secs: 1401812598
    nsecs: 464852094
  frame_id: ''
data: [-2.2535932218650072, -25.698522137164716, 260.95036057279162, 0.26600378787878787, 0.25606060606060604, -0.39365530303030305]
---
header: 
  seq: 29414
  stamp: 
    secs: 1401812598
    nsecs: 472866058
  frame_id: ''
data: [-2.252307251109853, -25.698433673553904, 260.95380837596502, 0.26534090909090907, 0.25634469696969697, -0.39337121212121212]
---
header: 
  seq: 29415
  stamp: 
    secs: 1401812598
    nsecs: 484858036
  frame_id: ''
data: [-2.2534920952666471, -25.695314234714115, 260.96131828080598, 0.26515151515151514, 0.25587121212121211, -0.39346590909090912]
---
header: 
  seq: 29416
  stamp: 
    secs: 1401812598
    nsecs: 492865085
  frame_id: ''
data: [-2.2506989496369925, -25.696455443910292, 260.96316508373201, 0.2650568181818182, 0.25624999999999998, -0.39346590909090912]
---
header: 
  seq: 29417
  stamp: 
    secs: 1401812598
    nsecs: 504858970
  frame_id: ''
data: [-2.2445090272468144, -25.703517715006548, 260.97691765702263, 0.26553030303030301, 0.25700757575757577, -0.39431818181818185]
---
header: 
  seq: 29418
  stamp: 
    secs: 1401812598
    nsecs: 512852907
  frame_id: ''
data: [-2.2369405719036042, -25.724767639317093, 260.97648527846752, 0.26780303030303032, 0.25833333333333336, -0.39602272727272725]
---
header: 
  seq: 29419
  stamp: 
    secs: 1401812598
    nsecs: 524853944
  frame_id: ''
data: [-2.2221071964214643, -25.745956696678391, 260.97611607354077, 0.26600378787878787, 0.2589962121212121, -0.39706439393939397]
---
header: 
  seq: 29420
  stamp: 
    secs: 1401812598
    nsecs: 532861948
  frame_id: ''
data: [-2.2094410841831942, -25.760245004288532, 260.96590813581543, 0.26761363636363639, 0.25852272727272729, -0.39753787878787877]
---
header: 
  seq: 29421
  stamp: 
    secs: 1401812598
    nsecs: 540862083
  frame_id: ''
data: [-2.1887329060790717, -25.754943259699225, 260.9564306763852, 0.26581439393939393, 0.26003787878787876, -0.39649621212121211]
---
header: 
  seq: 29422
  stamp: 
    secs: 1401812598
    nsecs: 552862882
  frame_id: ''
data: [-2.164962541491275, -25.726064935059796, 260.93159648999153, 0.2643939393939394, 0.25795454545454544, -0.39583333333333331]
---
header: 
  seq: 29423
  stamp: 
    secs: 1401812598
    nsecs: 566797971
  frame_id: ''
data: [-2.1340115473700378, -25.673249863419475, 260.91876148361752, 0.26060606060606062, 0.2578598484848485, -0.39498106060606059]
---
header: 
  seq: 29424
  stamp: 
    secs: 1401812598
    nsecs: 574794054
  frame_id: ''
data: [-2.0984510157295757, -25.596190500819141, 260.91845541573798, 0.25672348484848484, 0.25738636363636364, -0.39412878787878786]
---
header: 
  seq: 29425
  stamp: 
    secs: 1401812598
    nsecs: 582793951
  frame_id: ''
data: [-2.0483007818748211, -25.492341312391467, 260.93493551879158, 0.25189393939393939, 0.25909090909090909, -0.39289772727272726]
---
header: 
  seq: 29426
  stamp: 
    secs: 1401812598
    nsecs: 593357086
  frame_id: ''
data: [-1.9902583572278101, -25.393011588702858, 260.93911508351124, 0.25028409090909093, 0.26051136363636362, -0.39374999999999999]
---
header: 
  seq: 29427
  stamp: 
    secs: 1401812598
    nsecs: 601918935
  frame_id: ''
data: [-1.9171061217358474, -25.293736127826318, 260.93887910815056, 0.24820075757575757, 0.26420454545454547, -0.39403409090909092]
---
header: 
  seq: 29428
  stamp: 
    secs: 1401812598
    nsecs: 613919973
  frame_id: ''
data: [-1.8356175784467055, -25.199072852175004, 260.94172151089481, 0.24564393939393939, 0.26581439393939393, -0.39554924242424244]
---
header: 
  seq: 29429
  stamp: 
    secs: 1401812598
    nsecs: 620928049
  frame_id: ''
data: [-1.7530985229138067, -25.094650336385751, 260.96926079638763, 0.24488636363636362, 0.26770833333333333, -0.39403409090909092]
---
header: 
  seq: 29430
  stamp: 
    secs: 1401812598
    nsecs: 633076906
  frame_id: ''
data: [-1.6742653710172333, -24.994831052602084, 260.99049346815593, 0.24090909090909091, 0.26780303030303032, -0.39460227272727272]
---
header: 
  seq: 29431
  stamp: 
    secs: 1401812598
    nsecs: 641099929
  frame_id: ''
data: [-1.6069503117294239, -24.912639987201295, 261.01395071899685, 0.24232954545454546, 0.27045454545454545, -0.39356060606060606]
---
header: 
  seq: 29432
  stamp: 
    secs: 1401812598
    nsecs: 653100967
  frame_id: ''
data: [-1.5403387673647075, -24.850067380816771, 261.02713192024339, 0.24289772727272727, 0.27121212121212124, -0.39384469696969698]
---
header: 
  seq: 29433
  stamp: 
    secs: 1401812598
    nsecs: 661274909
  frame_id: ''
data: [-1.4796547750159936, -24.808812685557299, 261.03229945202702, 0.24393939393939393, 0.27452651515151516, -0.39299242424242425]
---
header: 
  seq: 29434
  stamp: 
    secs: 1401812598
    nsecs: 673190116
  frame_id: ''
data: [-1.4301200773435487, -24.778912424805455, 261.04432172111422, 0.24535984848484849, 0.27414772727272729, -0.39232954545454546]
---
header: 
  seq: 29435
  stamp: 
    secs: 1401812598
    nsecs: 681102991
  frame_id: ''
data: [-1.3885837317049821, -24.757185683508531, 261.04393379849193, 0.24554924242424242, 0.27443181818181817, -0.39223484848484846]
---
header: 
  seq: 29436
  stamp: 
    secs: 1401812598
    nsecs: 693267107
  frame_id: ''
data: [-1.3546380962262861, -24.745482151868593, 261.05273425536876, 0.24696969696969698, 0.27452651515151516, -0.39204545454545453]
---
header: 
  seq: 29437
  stamp: 
    secs: 1401812598
    nsecs: 701272964
  frame_id: ''
data: [-1.3279350884541163, -24.735488590692036, 261.0617708521637, 0.24829545454545454, 0.27500000000000002, -0.39195075757575759]
---
header: 
  seq: 29438
  stamp: 
