header: 
  seq: 47546
  stamp: 
    secs: 1401812683
    nsecs: 404445123
  frame_id: optitrak
child_frame_id: /amit_test4
transform: 
  translation: 
    x: 2.06917238235
    y: 0.623270332813
    z: 0.647803246975
  rotation: 
    x: 0.432738213279
    y: 0.269948928642
    z: -0.377049444841
    w: 0.773109910278
---
header: 
  seq: 47547
  stamp: 
    secs: 1401812683
    nsecs: 416447376
  frame_id: optitrak
child_frame_id: /amit_test4
transform: 
  translation: 
    x: 2.06916713715
    y: 0.623272061348
    z: 0.647801041603
  rotation: 
    x: 0.432676135042
    y: 0.269975780535
    z: -0.377057282851
    w: 0.773131427554
---
header: 
  seq: 47548
  stamp: 
    secs: 1401812683
    nsecs: 424445866
  frame_id: optitrak
child_frame_id: /amit_test4
transform: 
  translation: 
    x: 2.06916046143
    y: 0.62327760458
    z: 0.647803246975
  rotation: 
    x: 0.432723639943
    y: 0.269867389489
    z: -0.377098797486
    w: 0.773122427253
---
header: 
  seq: 47549
  stamp: 
    secs: 1401812683
    nsecs: 434445880
  frame_id: optitrak
child_frame_id: /amit_test4
transform: 
  translation: 
    x: 2.06917643547
    y: 0.623291492462
    z: 0.647803783417
  rotation: 
    x: 0.43254971359
    y: 0.26990654974
    z: -0.377242146656
    w: 0.773136136321
---
header: 
  seq: 47550
  stamp: 
    secs: 1401812683
    nsecs: 448447346
  frame_id: optitrak
child_frame_id: /amit_test4
transform: 
  translation: 
    x: 2.06917452812
    y: 0.623275995255
    z: 0.647786617279
  rotation: 
    x: 0.432646779754
    y: 0.26990950017
    z: -0.377116887496
    w: 0.773141977576
---
header: 
  seq: 47551
  stamp: 
    secs: 1401812683
    nsecs: 454444293
  frame_id: optitrak
child_frame_id: /amit_test4
transform: 
  translation: 
    x: 2.06919240952
    y: 0.623274683952
    z: 0.647806763649
  rotation: 
    x: 0.432627855279
    y: 0.269928812075
    z: -0.377102403567
    w: 0.773152825622
---
header: 
  seq: 47552
  stamp: 
    secs: 1401812683
    nsecs: 464446280
  frame_id: optitrak
child_frame_id: /amit_test4
transform: 
  translation: 
    x: 2.06918954849
    y: 0.623263239861
    z: 0.647804796696
  rotation: 
    x: 0.432721404769
    y: 0.26990154295
    z: -0.377101330684
    w: 0.773110506324
---
header: 
  seq: 47553
  stamp: 
    secs: 1401812683
    nsecs: 478451607
  frame_id: optitrak
child_frame_id: /amit_test4
transform: 
  translation: 
    x: 2.06919240952
    y: 0.623261928558
    z: 0.647801756859
  rotation: 
    x: 0.432681201436
    y: 0.269962160873
    z: -0.377079157756
    w: 0.773122725276
---
header: 
  seq: 47554
  stamp: 
    secs: 1401812683
    nsecs: 484446106
  frame_id: optitrak
child_frame_id: /amit_test4
transform: 
  translation: 
    x: 2.06917524338
    y: 0.623268842697
    z: 0.6478048563
  rotation: 
    x: 0.432658700683
    y: 0.269917159367
    z: -0.377142159865
    w: 0.773120341091
---
header: 
  seq: 47555
  stamp: 
    secs: 1401812683
    nsecs: 496445160
  frame_id: optitrak
child_frame_id: /amit_test4
transform: 
  translation: 
    x: 2.0691614151
    y: 0.623274564743
    z: 0.647800207138
  rotation: 
    x: 0.432609228828
    y: 0.270039676714
    z: -0.377163438723
    w: 0.773094770698
---
header: 
  seq: 47556
  stamp: 
    secs: 1401812683
    nsecs: 504443870
  frame_id: optitrak
child_frame_id: /amit_test4
transform: 
  translation: 
    x: 2.06916618347
    y: 0.623290836811
    z: 0.647808969021
  rotation: 
    x: 0.432554571369
    y: 0.269969164419
    z: -0.377152441666
    w: 0.773155329017
---
header: 
  seq: 47557
  stamp: 
    secs: 1401812683
    nsecs: 514480651
  frame_id: optitrak
child_frame_id: /amit_test4
transform: 
  translation: 
    x: 2.06941866875
    y: 0.62242180109
    z: 0.647112488747
  rotation: 
    x: 0.422657786381
    y: 0.26547512323
    z: -0.370910971112
    w: 0.783140179867
---
header: 
  seq: 47558
  stamp: 
    secs: 1401812683
    nsecs: 525523465
  frame_id: optitrak
child_frame_id: /amit_test4
transform: 
  translation: 
    x: 2.06985926628
    y: 0.621649861336
    z: 0.647967159748
  rotation: 
    x: 0.421961812749
    y: 0.248936652302
    z: -0.37433829778
    w: 0.78730523322
---
header: 
  seq: 47559
  stamp: 
    secs: 1401812683
    nsecs: 534446977
  frame_id: optitrak
child_frame_id: /amit_test4
transform: 
  translation: 
    x: 2.06986260414
    y: 0.621649980545
    z: 0.647962272167
  rotation: 
    x: 0.42193141438
    y: 0.24899643576
    z: -0.374389647181
    w: 0.787278232316
---
header: 
  seq: 47560
  stamp: 
    secs: 1401812683
    nsecs: 544444396
  frame_id: optitrak
child_frame_id: /amit_test4
transform: 
  translation: 
    x: 2.06987333298
    y: 0.621644020081
    z: 0.647954523563
  rotation: 
    x: 0.421838669553
    y: 0.248948319911
    z: -0.374425588782
    w: 0.787326154451
---
header: 
  seq: 47561
  stamp: 
    secs: 1401812683
    nsecs: 558446586
  frame_id: optitrak
child_frame_id: /amit_test4
transform: 
  translation: 
    x: 2.06988048553
    y: 0.621641635895
    z: 0.647945523262
  rotation: 
    x: 0.421865402236
    y: 0.248874603867
    z: -0.37439656132
    w: 0.78734886382
---
header: 
  seq: 47562
  stamp: 
    secs: 1401812683
    nsecs: 564445780
  frame_id: optitrak
child_frame_id: /amit_test4
transform: 
  translation: 
    x: 2.06987190247
    y: 0.621654033661
    z: 0.647961378098
  rotation: 
    x: 0.421842007413
    y: 0.249041943906
    z: -0.374388782914
    w: 0.787312147359
---
header: 
  seq: 47563
  stamp: 
    secs: 1401812683
    nsecs: 574448505
  frame_id: optitrak
child_frame_id: /amit_test4
transform: 
  translation: 
    x: 2.06987452507
    y: 0.621640384197
    z: 0.647954940796
  rotation: 
    x: 0.421880541816
    y: 0.248965262531
    z: -0.37432277077
    w: 0.787347254495
---
header: 
  seq: 47564
  stamp: 
    secs: 1401812683
    nsecs: 587443772
  frame_id: optitrak
child_frame_id: /amit_test4
transform: 
  translation: 
    x: 2.06985783577
    y: 0.621653139591
    z: 0.647968947887
  rotation: 
    x: 0.421899674907
    y: 0.249047487138
    z: -0.374367533858
    w: 0.787289676408
---
header: 
  seq: 47565
  stamp: 
    secs: 1401812683
    nsecs: 594448361
  frame_id: optitrak
child_frame_id: /amit_test4
transform: 
  translation: 
    x: 2.06984472275
    y: 0.621660530567
    z: 0.647950947285
  rotation: 
    x: 0.421841083541
    y: 0.248957051991
    z: -0.374486117298
    w: 0.787293252687
---
header: 
  seq: 47566
  stamp: 
    secs: 1401812683
    nsecs: 604448612
  frame_id: optitrak
child_frame_id: /amit_test4
transform: 
  translation: 
    x: 2.06985473633
    y: 0.621657907963
    z: 0.64794999361
  rotation: 
    x: 0.421879021898
    y: 0.248993127702
    z: -0.374415277178
    w: 0.787295160036
---
header: 
  seq: 47567
  stamp: 
    secs: 1401812683
    nsecs: 614447723
  frame_id: optitrak
child_frame_id: /amit_test4
transform: 
  translation: 
    x: 2.06986045837
    y: 0.62167352438
    z: 0.647955238819
  rotation: 
    x: 0.421848474517
    y: 0.248873799204
    z: -0.374503164227
    w: 0.787307498197
---
header: 
  seq: 47568
  stamp: 
    secs: 1401812683
    nsecs: 624447888
  frame_id: optitrak
child_frame_id: /amit_test4
transform: 
  translation: 
    x: 2.06985831261
    y: 0.621646344662
    z: 0.647974193096
  rotation: 
    x: 0.421875117793
    y: 0.248871578931
    z: -0.374506889517
    w: 0.787292179803
---
header: 
  seq: 47569
  stamp: 
    secs: 1401812683
    nsecs: 635453230
  frame_id: optitrak
child_frame_id: /amit_test4
transform: 
  translation: 
    x: 2.06945991516
    y: 0.622431159019
    z: 0.647127449512
  rotation: 
    x: 0.422563640845
    y: 0.26551118404
    z: -0.371045767016
    w: 0.783114788288
---
header: 
  seq: 47570
  stamp: 
    secs: 1401812683
    nsecs: 644446870
  frame_id: optitrak
child_frame_id: /amit_test4
transform: 
  translation: 
    x: 2.06920075417
    y: 0.623281180859
    z: 0.64780819416
  rotation: 
    x: 0.432599543073
    y: 0.269800364066
    z: -0.377206354067
    w: 0.773162779597
---
header: 
  seq: 47571
  stamp: 
    secs: 1401812683
    nsecs: 654447436
  frame_id: optitrak
child_frame_id: /amit_test4
transform: 
  translation: 
    x: 2.06920385361
    y: 0.623279213905
    z: 0.647790014744
  rotation: 
    x: 0.43255650852
    y: 0.269873379755
    z: -0.377248405144
    w: 0.773140904693
---
header: 
  seq: 47572
  stamp: 
    secs: 1401812683
    nsecs: 667448560
  frame_id: optitrak
child_frame_id: /amit_test4
transform: 
  translation: 
    x: 2.06918907166
    y: 0.623272418976
    z: 0.647795200348
  rotation: 
    x: 0.432634680011
    y: 0.269961505222
    z: -0.377160637305
    w: 0.773109254627
---
header: 
  seq: 47573
  stamp: 
    secs: 1401812683
    nsecs: 674444266
  frame_id: optitrak
child_frame_id: /amit_test4
transform: 
  translation: 
    x: 2.06917619705
    y: 0.623271405697
    z: 0.64779227972
  rotation: 
    x: 0.432663677671
    y: 0.269893138695
    z: -0.377071498559
    w: 0.773160455016
---
header: 
  seq: 47574
  stamp: 
    secs: 1401812683
    nsecs: 684448889
  frame_id: optitrak
child_frame_id: /amit_test4
transform: 
  translation: 
    x: 2.06917762756
    y: 0.623290061951
    z: 0.647795379162
  rotation: 
    x: 0.432634352186
    y: 0.269904731798
    z: -0.377170293257
    w: 0.77312457302
---
header: 
  seq: 47575
  stamp: 
    secs: 1401812683
    nsecs: 697445289
  frame_id: optitrak
child_frame_id: /amit_test4
transform: 
  translation: 
    x: 2.0691640377
    y: 0.623278439045
    z: 0.647806882858
  rotation: 
    x: 0.432723818757
    y: 0.26987600236
    z: -0.377071021722
    w: 0.773132917671
---
header: 
  seq: 47576
  stamp: 
    secs: 1401812683
    nsecs: 704446789
  frame_id: optitrak
child_frame_id: /amit_test4
transform: 
  translation: 
    x: 2.06917262077
    y: 0.623288094997
    z: 0.647813141346
  rotation: 
    x: 0.432736782767
    y: 0.269971131372
    z: -0.377131758855
    w: 0.773062822608
---
header: 
  seq: 47577
  stamp: 
    secs: 1401812683
    nsecs: 714446454
  frame_id: optitrak
child_frame_id: /amit_test4
transform: 
  translation: 
    x: 2.06919789314
    y: 0.623295783997
    z: 0.647802293301
  rotation: 
    x: 0.43267381046
    y: 0.269945531178
    z: -0.377259819434
    w: 0.773044464378
---
header: 
  seq: 47578
  stamp: 
    secs: 1401812683
    nsecs: 728444526
  frame_id: optitrak
child_frame_id: /amit_test4
transform: 
  translation: 
    x: 2.0691986084
    y: 0.62325322628
    z: 0.647808492184
  rotation: 
    x: 0.432604162433
    y: 0.269867478895
    z: -0.37722819917
    w: 0.773126122741
---
header: 
  seq: 47579
  stamp: 
    secs: 1401812683
    nsecs: 734444098
  frame_id: optitrak
child_frame_id: /amit_test4
transform: 
  translation: 
    x: 2.06920433044
    y: 0.62328261137
    z: 0.64779561758
  rotation: 
    x: 0.43260720227
    y: 0.269827931214
    z: -0.377199171708
    w: 0.773152467994
---
header: 
  seq: 47580
  stamp: 
    secs: 1401812683
    nsecs: 745512002
  frame_id: optitrak
child_frame_id: /amit_test4
transform: 
  translation: 
    x: 2.06919193268
    y: 0.623273313046
    z: 0.647797465324
  rotation: 
    x: 0.43263953779
    y: 0.2698020926
    z: -0.377169518397
    w: 0.773157832412
---
header: 
  seq: 47581
  stamp: 
    secs: 1401812683
    nsecs: 754450213
  frame_id: optitrak
child_frame_id: /amit_test4
transform: 
  translation: 
    x: 2.06918954849
    y: 0.623289763927
    z: 0.647802114487
  rotation: 
    x: 0.432557670811
    y: 0.26985072999
    z: -0.377211927102
    w: 0.773165998248
---
header: 
  seq: 47582
  stamp: 
    secs: 1401812683
    nsecs: 764444486
  frame_id: optitrak
child_frame_id: /amit_test4
transform: 
  translation: 
    x: 2.06917929649
    y: 0.623277425766
    z: 0.647807717323
  rotation: 
    x: 0.432677774169
    y: 0.269897400427
    z: -0.377066610978
    w: 0.773153362064
---
header: 
  seq: 47583
  stamp: 
    secs: 1401812683
    nsecs: 775446605
  frame_id: optitrak
child_frame_id: /amit_test4
transform: 
  translation: 
    x: 2.06917500496
    y: 0.623292028904
    z: 0.647810399532
  rotation: 
    x: 0.432562319973
    y: 0.270038514423
    z: -0.377148626969
    w: 0.773128626136
---
header: 
  seq: 47584
  stamp: 
    secs: 1401812683
    nsecs: 784446534
  frame_id: optitrak
child_frame_id: /amit_test4
transform: 
  translation: 
    x: 2.06916904449
    y: 0.623288691044
    z: 0.647795319557
  rotation: 
    x: 0.4326114342
    y: 0.269983231115
    z: -0.377173482106
    w: 0.773108420162
---
header: 
  seq: 47585
  stamp: 
    secs: 1401812683
    nsecs: 794445873
  frame_id: optitrak
child_frame_id: /amit_test4
transform: 
  translation: 
    x: 2.06916499138
    y: 0.623257100582
    z: 0.64779484272
  rotation: 
    x: 0.432681112029
    y: 0.269828706074
    z: -0.377204893754
    w: 0.773108002929
---
header: 
  seq: 47586
  stamp: 
    secs: 1401812683
    nsecs: 808434446
  frame_id: optitrak
child_frame_id: /amit_test4
transform: 
  translation: 
    x: 2.06917285919
    y: 0.623255491257
    z: 0.647794663906
  rotation: 
    x: 0.432642637231
    y: 0.269787340451
    z: -0.377236603425
    w: 0.773128506927
---
header: 
  seq: 47587
  stamp: 
    secs: 1401812683
    nsecs: 814444645
  frame_id: optitrak
child_frame_id: /amit_test4
transform: 
  translation: 
    x: 2.06919050217
    y: 0.623264968395
    z: 0.647802948952
  rotation: 
    x: 0.432697652318
    y: 0.269901513148
    z: -0.377059696839
    w: 0.773144123344
---
header: 
  seq: 47588
  stamp: 
    secs: 1401812683
    nsecs: 824447169
  frame_id: optitrak
child_frame_id: /amit_test4
transform: 
  translation: 
    x: 2.06919813156
    y: 0.62326592207
    z: 0.647818565369
  rotation: 
    x: 0.432678757646
    y: 0.269998847532
    z: -0.377069233583
    w: 0.773116109161
---
header: 
  seq: 47589
  stamp: 
    secs: 1401812683
    nsecs: 837445709
  frame_id: optitrak
child_frame_id: /amit_test4
transform: 
  translation: 
    x: 2.069190979
    y: 0.623271107674
    z: 0.647796809673
  rotation: 
    x: 0.432643561103
    y: 0.270012467193
    z: -0.377115546391
    w: 0.773108420162
---
header: 
  seq: 47590
  stamp: 
    secs: 1401812683
    nsecs: 844447396
  frame_id: optitrak
child_frame_id: /amit_test4
transform: 
  translation: 
    x: 2.06918215752
    y: 0.623285055161
    z: 0.647796273232
  rotation: 
    x: 0.432574300506
    y: 0.269960283327
    z: -0.377189724372
    w: 0.773129281787
---
header: 
  seq: 47591
  stamp: 
    secs: 1401812683
    nsecs: 854444662
  frame_id: optitrak
child_frame_id: /amit_test4
transform: 
  translation: 
    x: 2.06917095184
    y: 0.623276174068
    z: 0.647797524929
  rotation: 
    x: 0.432667164543
    y: 0.269935457993
    z: -0.377140252517
    w: 0.773110089092
---
header: 
  seq: 47592
  stamp: 
    secs: 1401812683
    nsecs: 869448381
  frame_id: optitrak
child_frame_id: /amit_test4
transform: 
  translation: 
    x: 2.06916666031
    y: 0.623279750347
    z: 0.647798717022
  rotation: 
    x: 0.432658223846
    y: 0.269938706446
    z: -0.37704533212
    w: 0.773160216598
---
header: 
  seq: 47593
  stamp: 
    secs: 1401812683
    nsecs: 874444879
  frame_id: optitrak
child_frame_id: /amit_test4
transform: 
  translation: 
    x: 2.06916904449
    y: 0.623269498348
    z: 0.647810518742
  rotation: 
    x: 0.432652263381
    y: 0.269998638916
    z: -0.377068011687
    w: 0.773131606368
---
header: 
  seq: 47594
  stamp: 
    secs: 1401812683
    nsecs: 885445516
  frame_id: optitrak
child_frame_id: /amit_test4
transform: 
  translation: 
    x: 2.06917381287
    y: 0.623271822929
    z: 0.647803544998
  rotation: 
    x: 0.432611106374
    y: 0.270061551618
    z: -0.377087860034
    w: 0.7731230233
---
header: 
  seq: 47595
  stamp: 
    secs: 1401812683
    nsecs: 899448034
  frame_id: optitrak
child_frame_id: /amit_test4
transform: 
  translation: 
    x: 2.06917262077
    y: 0.623277366161
    z: 0.647800266743
  rotation: 
    x: 0.432690291145
    y: 0.270095556068
    z: -0.377105830834
    w: 0.773057994632
---
header: 
  seq: 47596
  stamp: 
    secs: 1401812683
    nsecs: 904447982
  frame_id: optitrak
child_frame_id: /amit_test4
transform: 
  translation: 
    x: 2.06918287277
    y: 0.623258709908
    z: 0.647800147533
  rotation: 
    x: 0.432580201366
    y: 0.269886194754
    z: -0.377264051363
    w: 0.773115572719
---
header: 
  seq: 47597
  stamp: 
    secs: 1401812683
    nsecs: 916445124
  frame_id: optitrak
child_frame_id: /amit_test4
transform: 
  translation: 
    x: 2.06919360161
    y: 0.623276531696
    z: 0.647808492184
  rotation: 
    x: 0.432580439785
    y: 0.269798724938
    z: -0.377185045407
    w: 0.773184416083
---
header: 
  seq: 47598
  stamp: 
    secs: 1401812683
    nsecs: 924445322
  frame_id: optitrak
child_frame_id: /amit_test4
transform: 
  translation: 
    x: 2.06919527054
    y: 0.623289108276
    z: 0.647798061371
  rotation: 
    x: 0.432550637462
    y: 0.269921123076
    z: -0.37720215194
    w: 0.773150083808
---
header: 
  seq: 47599
  stamp: 
    secs: 1401812683
    nsecs: 934444748
  frame_id: optitrak
child_frame_id: /amit_test4
transform: 
  translation: 
    x: 2.06919312477
    y: 0.62329518795
    z: 0.647790670395
  rotation: 
    x: 0.432527361849
    y: 0.269880800534
    z: -0.37725028269
    w: 0.773153719691
---
header: 
  seq: 47600
  stamp: 
    secs: 1401812683
    nsecs: 946444020
  frame_id: optitrak
child_frame_id: /amit_test4
transform: 
  translation: 
    x: 2.06918001175
    y: 0.623289227486
    z: 0.647798657417
  rotation: 
    x: 0.432589976528
    y: 0.269981472778
    z: -0.377177803443
    w: 0.773118910579
---
header: 
  seq: 47601
  stamp: 
    secs: 1401812683
    nsecs: 954445298
  frame_id: optitrak
child_frame_id: /amit_test4
transform: 
  translation: 
    x: 2.06917524338
    y: 0.623288691044
    z: 0.647809147835
  rotation: 
    x: 0.432602284887
    y: 0.270019947576
    z: -0.37721806638
    w: 0.773078915863
---
header: 
  seq: 47602
  stamp: 
    secs: 1401812683
    nsecs: 964444844
  frame_id: optitrak
child_frame_id: /amit_test4
transform: 
  translation: 
    x: 2.06917190552
    y: 0.623258113861
    z: 0.647812664509
  rotation: 
    x: 0.432653425672
    y: 0.269943981457
    z: -0.377217649148
    w: 0.773076948909
---
header: 
  seq: 47603
  stamp: 
    secs: 1401812683
    nsecs: 977444915
  frame_id: optitrak
child_frame_id: /amit_test4
transform: 
  translation: 
    x: 2.06917071342
    y: 0.623283982277
    z: 0.647795677185
  rotation: 
    x: 0.432591854074
    y: 0.269896774578
    z: -0.377109526322
    w: 0.7731807802
---
header: 
  seq: 47604
  stamp: 
    secs: 1401812683
    nsecs: 984444362
  frame_id: optitrak
child_frame_id: /amit_test4
transform: 
  translation: 
    x: 2.06918478012
    y: 0.623294234276
    z: 0.647788465023
  rotation: 
    x: 0.432585983017
    y: 0.269966452408
    z: -0.377188770697
    w: 0.773120996742
---
header: 
  seq: 47605
  stamp: 
    secs: 1401812683
    nsecs: 994445255
  frame_id: optitrak
child_frame_id: /amit_test4
transform: 
  translation: 
    x: 2.06918334961
    y: 0.62328261137
    z: 0.647785305977
  rotation: 
    x: 0.432582585552
    y: 0.269853352595
    z: -0.377154706643
    w: 0.773179051665
---
header: 
  seq: 47606
  stamp: 
    secs: 1401812684
    nsecs: 4445786
  frame_id: optitrak
child_frame_id: /amit_test4
transform: 
  translation: 
    x: 2.06918931007
    y: 0.623274505138
    z: 0.6478074193
  rotation: 
    x: 0.432610271909
    y: 0.269944070864
    z: -0.377130775378
    w: 0.773143527297
---
header: 
  seq: 47607
  stamp: 
    secs: 1401812684
    nsecs: 14445452
  frame_id: optitrak
child_frame_id: /amit_test4
transform: 
  translation: 
    x: 2.06910014153
    y: 0.623104035854
    z: 0.647850871086
  rotation: 
    x: 0.432533769348
    y: 0.26894766002
    z: -0.378277717751
    w: 0.772973177223
---
header: 
  seq: 47608
  stamp: 
    secs: 1401812684
    nsecs: 24446164
  frame_id: optitrak
child_frame_id: /amit_test4
transform: 
  translation: 
    x: 2.06917667389
    y: 0.623260498047
    z: 0.647787868977
  rotation: 
    x: 0.432581691482
    y: 0.269735842038
    z: -0.377222804949
    w: 0.773187336711
---
header: 
  seq: 47609
  stamp: 
    secs: 1401812684
    nsecs: 34448222
  frame_id: optitrak
child_frame_id: /amit_test4
transform: 
  translation: 
    x: 2.06918287277
    y: 0.623279988766
    z: 0.647782325745
  rotation: 
    x: 0.432563214042
    y: 0.269932924795
    z: -0.377104221509
    w: 0.773186740665
---
header: 
  seq: 47610
  stamp: 
    secs: 1401812684
    nsecs: 44447153
  frame_id: optitrak
child_frame_id: /amit_test4
transform: 
  translation: 
    x: 2.06917929649
    y: 0.623280465603
    z: 0.647782027721
  rotation: 
    x: 0.43253970001
    y: 0.269946633863
    z: -0.377153454945
    w: 0.773171064643
---
header: 
  seq: 47611
  stamp: 
    secs: 1401812684
    nsecs: 56444647
  frame_id: optitrak
child_frame_id: /amit_test4
transform: 
  translation: 
    x: 2.06942439079
    y: 0.622415781021
    z: 0.647108793259
  rotation: 
    x: 0.42256614424
    y: 0.265530197921
    z: -0.370978473372
    w: 0.783138868565
---
header: 
  seq: 47612
  stamp: 
    secs: 1401812684
    nsecs: 64444426
  frame_id: optitrak
child_frame_id: /amit_test4
transform: 
  translation: 
    x: 2.06983828545
    y: 0.621620535851
    z: 0.647997260094
  rotation: 
    x: 0.421882449165
    y: 0.24882139182
    z: -0.374428956444
    w: 0.787341174821
---
header: 
  seq: 47613
  stamp: 
    secs: 1401812684
    nsecs: 74447317
  frame_id: optitrak
child_frame_id: /amit_test4
transform: 
  translation: 
    x: 2.06920456886
    y: 0.622260153294
    z: 0.647289335728
  rotation: 
    x: 0.421599625126
    y: 0.26536360294
    z: -0.372332154455
    w: 0.783073959107
---
header: 
  seq: 47614
  stamp: 
    secs: 1401812684
    nsecs: 87444698
  frame_id: optitrak
child_frame_id: /amit_test4
transform: 
  translation: 
    x: 2.06943416595
    y: 0.622430026531
    z: 0.647103250027
  rotation: 
    x: 0.422513692153
    y: 0.265536963049
    z: -0.371005176253
    w: 0.7831521604
---
header: 
  seq: 47615
  stamp: 
    secs: 1401812684
    nsecs: 94445666
  frame_id: optitrak
child_frame_id: /amit_test4
transform: 
  translation: 
    x: 2.06944775581
    y: 0.622442483902
    z: 0.64708429575
  rotation: 
    x: 0.422349481357
    y: 0.26531329662
    z: -0.37111678595
    w: 0.783263740295
---
header: 
  seq: 47616
  stamp: 
    secs: 1401812684
    nsecs: 104445121
  frame_id: optitrak
child_frame_id: /amit_test4
transform: 
  translation: 
    x: 2.0694475174
    y: 0.622429847717
    z: 0.647110641003
  rotation: 
    x: 0.422516076339
    y: 0.26546204001
    z: -0.371066420025
    w: 0.783147332424
---
header: 
  seq: 47617
  stamp: 
    secs: 1401812684
    nsecs: 118447622
  frame_id: optitrak
child_frame_id: /amit_test4
transform: 
  translation: 
    x: 2.06943893433
    y: 0.622406423092
    z: 0.647122859955
  rotation: 
    x: 0.422512380851
    y: 0.265488355461
    z: -0.370993195719
    w: 0.783175108189
---
header: 
  seq: 47618
  stamp: 
    secs: 1401812684
    nsecs: 124443935
  frame_id: optitrak
child_frame_id: /amit_test4
transform: 
  translation: 
    x: 2.06985139847
    y: 0.621619343758
    z: 0.64798784256
  rotation: 
    x: 0.421831069961
    y: 0.248851343154
    z: -0.374457477267
    w: 0.787345585565
---
header: 
  seq: 47619
  stamp: 
    secs: 1401812684
    nsecs: 134444018
  frame_id: optitrak
child_frame_id: /amit_test4
transform: 
  translation: 
    x: 2.0694258213
    y: 0.622423708439
    z: 0.647099256516
  rotation: 
    x: 0.422492562307
    y: 0.265553056303
    z: -0.371003358311
    w: 0.78315895533
---
header: 
  seq: 47620
  stamp: 
    secs: 1401812684
    nsecs: 149448656
  frame_id: optitrak
child_frame_id: /amit_test4
transform: 
  translation: 
    x: 2.0691716671
    y: 0.623278856277
    z: 0.64778727293
  rotation: 
    x: 0.432654140928
    y: 0.27004104762
    z: -0.377107261346
    w: 0.773096558837
---
header: 
  seq: 47621
  stamp: 
    secs: 1401812684
    nsecs: 154444380
  frame_id: optitrak
child_frame_id: /amit_test4
transform: 
  translation: 
    x: 2.06917762756
    y: 0.623279035091
    z: 0.647793292999
  rotation: 
    x: 0.432636110523
    y: 0.269896387148
    z: -0.377035586761
    w: 0.773192164687
---
header: 
  seq: 47622
  stamp: 
    secs: 1401812684
    nsecs: 165444912
  frame_id: optitrak
child_frame_id: /amit_test4
transform: 
  translation: 
    x: 2.06916999817
    y: 0.623275220394
    z: 0.647798120975
  rotation: 
    x: 0.43265917752
    y: 0.269957571316
    z: -0.377035080121
    w: 0.773158130435
---
header: 
  seq: 47623
  stamp: 
    secs: 1401812684
    nsecs: 174445827
  frame_id: optitrak
child_frame_id: /amit_test4
transform: 
  translation: 
    x: 2.06916236877
    y: 0.623278796673
    z: 0.647799551487
  rotation: 
    x: 0.432670681217
    y: 0.269887208033
    z: -0.377116976903
    w: 0.773136255531
---
header: 
  seq: 47624
  stamp: 
    secs: 1401812684
    nsecs: 184443865
  frame_id: optitrak
child_frame_id: /amit_test4
transform: 
  translation: 
    x: 2.06917214394
    y: 0.623283624649
    z: 0.647801458836
  rotation: 
    x: 0.432581512668
    y: 0.26994043498
    z: -0.3771605777
    w: 0.773146328716
---
header: 
  seq: 47625
  stamp: 
    secs: 1401812684
    nsecs: 197448934
  frame_id: optitrak
child_frame_id: /amit_test4
transform: 
  translation: 
    x: 2.069190979
    y: 0.623275578022
    z: 0.647790253162
  rotation: 
    x: 0.432612179258
    y: 0.269955514956
    z: -0.377160845921
    w: 0.77312379816
---
header: 
  seq: 47626
  stamp: 
    secs: 1401812684
    nsecs: 204445708
  frame_id: optitrak
child_frame_id: /amit_test4
transform: 
  translation: 
    x: 2.0691921711
    y: 0.62327092886
    z: 0.64780408144
  rotation: 
    x: 0.432682244518
    y: 0.269924907971
    z: -0.377124934123
    w: 0.77311289051
---
header: 
  seq: 47627
  stamp: 
    secs: 1401812684
    nsecs: 214444482
  frame_id: optitrak
child_frame_id: /amit_test4
transform: 
  translation: 
    x: 2.06918478012
    y: 0.623264074326
    z: 0.647798657417
  rotation: 
    x: 0.432653485277
    y: 0.269840865422
    z: -0.37707382314
    w: 0.773183164386
---
header: 
  seq: 47628
  stamp: 
    secs: 1401812684
    nsecs: 227456012
  frame_id: optitrak
child_frame_id: /amit_test4
transform: 
  translation: 
    x: 2.06918406487
    y: 0.623273909092
    z: 0.647798478603
  rotation: 
    x: 0.432643352487
    y: 0.269913791704
    z: -0.377147077248
    w: 0.773127612857
---
header: 
  seq: 47629
  stamp: 
    secs: 1401812684
    nsecs: 234444376
  frame_id: optitrak
child_frame_id: /amit_test4
transform: 
  translation: 
    x: 2.06916475296
    y: 0.623259186745
    z: 0.647793889046
  rotation: 
    x: 0.432577757576
    y: 0.269987969684
    z: -0.377243428156
    w: 0.773091492443
---
header: 
  seq: 47630
  stamp: 
    secs: 1401812684
    nsecs: 244444583
  frame_id: optitrak
child_frame_id: /amit_test4
transform: 
  translation: 
    x: 2.06916356087
    y: 0.623282253742
    z: 0.647797524929
  rotation: 
    x: 0.432655601242
    y: 0.270008622694
    z: -0.377112655566
    w: 0.773104486255
---
header: 
  seq: 47631
  stamp: 
    secs: 1401812684
    nsecs: 258447742
  frame_id: optitrak
child_frame_id: /amit_test4
transform: 
  translation: 
    x: 2.06942939758
    y: 0.622546136379
    z: 0.648392081261
  rotation: 
    x: 0.433439193701
    y: 0.258938013638
    z: -0.379946558392
    w: 0.775062677643
---
header: 
  seq: 47632
  stamp: 
    secs: 1401812684
    nsecs: 264443583
  frame_id: optitrak
child_frame_id: /amit_test4
transform: 
  translation: 
    x: 2.06942772865
    y: 0.62242436409
    z: 0.647127330303
  rotation: 
    x: 0.422617612851
    y: 0.26563233048
    z: -0.37103953833
    w: 0.783047554249
---
header: 
  seq: 47633
  stamp: 
    secs: 1401812684
    nsecs: 274444652
  frame_id: optitrak
child_frame_id: /amit_test4
transform: 
  translation: 
    x: 2.06944298744
    y: 0.622409105301
    z: 0.647114157677
  rotation: 
    x: 0.422559230102
    y: 0.265508561435
    z: -0.370949028678
    w: 0.783163842911
---
header: 
  seq: 47634
  stamp: 
    secs: 1401812684
    nsecs: 284446492
  frame_id: optitrak
child_frame_id: /amit_test4
transform: 
  translation: 
    x: 2.06944775581
    y: 0.622410655022
    z: 0.647104561329
  rotation: 
    x: 0.422563491834
    y: 0.265504478517
    z: -0.371046571678
    w: 0.783116934055
---
header: 
  seq: 47635
  stamp: 
    secs: 1401812684
    nsecs: 294447272
  frame_id: optitrak
child_frame_id: /amit_test4
transform: 
  translation: 
    x: 2.06944322586
    y: 0.62241590023
    z: 0.647099673748
  rotation: 
    x: 0.422510026467
    y: 0.265482871834
    z: -0.370997278637
    w: 0.783176300281
---
header: 
  seq: 47636
  stamp: 
    secs: 1401812684
    nsecs: 306447492
  frame_id: optitrak
child_frame_id: /amit_test4
transform: 
  translation: 
    x: 2.06943845749
    y: 0.622412025928
    z: 0.647112727165
  rotation: 
    x: 0.422520636094
    y: 0.265498190227
    z: -0.371025531239
    w: 0.783151921982
---
header: 
  seq: 47637
  stamp: 
    secs: 1401812684
    nsecs: 314446375
  frame_id: optitrak
child_frame_id: /amit_test4
transform: 
  translation: 
    x: 2.0694270134
    y: 0.622414767742
    z: 0.647116303444
  rotation: 
    x: 0.42251378156
    y: 0.26562553555
    z: -0.37097126121
    w: 0.783138272518
---
header: 
  seq: 47638
  stamp: 
    secs: 1401812684
    nsecs: 324444379
  frame_id: optitrak
child_frame_id: /amit_test4
transform: 
  translation: 
    x: 2.06941866875
    y: 0.622420072556
    z: 0.647115767002
  rotation: 
    x: 0.422651676905
    y: 0.265620498958
    z: -0.370950816817
    w: 0.783075270409
---
header: 
  seq: 47639
  stamp: 
    secs: 1401812684
    nsecs: 337445474
  frame_id: optitrak
child_frame_id: /amit_test4
transform: 
  translation: 
    x: 2.06941866875
    y: 0.622417330742
    z: 0.647110342979
  rotation: 
    x: 0.422616927398
    y: 0.265509157482
    z: -0.370964525885
    w: 0.783125278706
---
header: 
  seq: 47640
  stamp: 
    secs: 1401812684
    nsecs: 344445405
  frame_id: optitrak
child_frame_id: /amit_test4
transform: 
  translation: 
    x: 2.06942820549
    y: 0.622426152229
    z: 0.64709687233
  rotation: 
    x: 0.422520367873
    y: 0.265543221536
    z: -0.371017782635
    w: 0.783140597099
---
header: 
  seq: 47641
  stamp: 
    secs: 1401812684
    nsecs: 354449931
  frame_id: optitrak
child_frame_id: /amit_test4
transform: 
  translation: 
    x: 2.06985092163
    y: 0.621651172638
    z: 0.647970199585
  rotation: 
    x: 0.421757964865
    y: 0.248885317802
    z: -0.374555735523
    w: 0.787327227334
---
header: 
  seq: 47642
  stamp: 
    secs: 1401812684
    nsecs: 369445896
  frame_id: optitrak
child_frame_id: /amit_test4
transform: 
  translation: 
    x: 2.06984806061
    y: 0.621631681919
    z: 0.647978067398
  rotation: 
    x: 0.421926496997
    y: 0.248802586555
    z: -0.374472348625
    w: 0.787302849035
---
header: 
  seq: 47643
  stamp: 
    secs: 1401812684
    nsecs: 374451970
  frame_id: optitrak
child_frame_id: /amit_test4
transform: 
  translation: 
    x: 2.06944561005
    y: 0.622433781624
    z: 0.647125005722
  rotation: 
    x: 0.422492145074
    y: 0.265580712858
    z: -0.371024488158
    w: 0.783139881844
---
header: 
  seq: 47644
  stamp: 
    secs: 1401812684
    nsecs: 384443689
  frame_id: optitrak
child_frame_id: /amit_test4
transform: 
  translation: 
    x: 2.06987047195
    y: 0.621640086174
    z: 0.647968292236
  rotation: 
    x: 0.421988158002
    y: 0.248870848774
    z: -0.374329476292
    w: 0.78731614087
---
header: 
  seq: 47645
  stamp: 
    secs: 1401812684
    nsecs: 394446537
  frame_id: optitrak
child_frame_id: /amit_test4
transform: 
  translation: 
    x: 2.06987810135
    y: 0.621630311012
    z: 0.647968530655
  rotation: 
    x: 0.421999125256
    y: 0.249009712695
    z: -0.37430596226
    w: 0.787277517061
---
header: 
  seq: 47646
  stamp: 
    secs: 1401812684
    nsecs: 404447071
  frame_id: optitrak
child_frame_id: /amit_test4
transform: 
  translation: 
    x: 2.06986784935
    y: 0.62163746357
    z: 0.647954881191
  rotation: 
    x: 0.421950219646
    y: 0.248959391474
    z: -0.37437423938
    w: 0.787287232618
---
header: 
  seq: 47647
  stamp: 
    secs: 1401812684
    nsecs: 414398648
  frame_id: optitrak
child_frame_id: /amit_test4
transform: 
  translation: 
    x: 2.06985855103
    y: 0.62164992094
    z: 0.647969961166
  rotation: 
    x: 0.421942411437
    y: 0.248976393699
    z: -0.374351172383
    w: 0.787296948175
---
header: 
  seq: 47648
  stamp: 
    secs: 1401812684
    nsecs: 424409616
  frame_id: optitrak
child_frame_id: /amit_test4
transform: 
  translation: 
    x: 2.069845438
    y: 0.621645629406
    z: 0.647974133492
  rotation: 
    x: 0.422053276076
    y: 0.248929022907
    z: -0.374361305173
    w: 0.787247655134
---
header: 
  seq: 47649
  stamp: 
    secs: 1401812684
    nsecs: 434448440
  frame_id: optitrak
child_frame_id: /amit_test4
transform: 
  translation: 
    x: 2.07008075714
    y: 0.621740162373
    z: 0.647862911224
  rotation: 
    x: 0.422649948371
    y: 0.248052223684
    z: -0.373504279791
    w: 0.78761130307
---
header: 
  seq: 47650
  stamp: 
    secs: 1401812684
    nsecs: 447445405
  frame_id: optitrak
child_frame_id: /amit_test4
transform: 
  translation: 
    x: 2.06985998154
    y: 0.621674895287
    z: 0.647969663143
  rotation: 
    x: 0.421909748092
    y: 0.248996316551
    z: -0.374554781849
    w: 0.787211355905
---
header: 
  seq: 47651
  stamp: 
    secs: 1401812684
    nsecs: 454448975
  frame_id: optitrak
child_frame_id: /amit_test4
transform: 
  translation: 
    x: 2.06987833977
    y: 0.621408700943
    z: 0.648266494274
  rotation: 
    x: 0.421241848247
    y: 0.244403659477
    z: -0.375973610808
    w: 0.788331088758
---
header: 
  seq: 47652
  stamp: 
    secs: 1401812684
    nsecs: 464447894
  frame_id: optitrak
child_frame_id: /amit_test4
transform: 
  translation: 
    x: 2.06988239288
    y: 0.621639430523
    z: 0.647960603237
  rotation: 
    x: 0.422051517739
    y: 0.248963265776
    z: -0.37433907264
    w: 0.78724837039
---
header: 
  seq: 47653
  stamp: 
    secs: 1401812684
    nsecs: 478444298
  frame_id: optitrak
child_frame_id: /amit_test4
transform: 
  translation: 
    x: 2.06988358498
    y: 0.621645748615
    z: 0.647970676422
  rotation: 
    x: 0.422015367522
    y: 0.248883276343
    z: -0.374399481947
    w: 0.787264344434
---
header: 
  seq: 47654
  stamp: 
    secs: 1401812684
    nsecs: 484447924
  frame_id: optitrak
child_frame_id: /amit_test4
transform: 
  translation: 
    x: 2.06988692284
    y: 0.621641933918
    z: 0.647977054119
  rotation: 
    x: 0.422090648188
    y: 0.248763992548
    z: -0.374353675778
    w: 0.787283477525
---
header: 
  seq: 47655
  stamp: 
    secs: 1401812684
    nsecs: 494442831
  frame_id: optitrak
child_frame_id: /amit_test4
transform: 
  translation: 
    x: 2.06944155693
    y: 0.622408628464
    z: 0.647119760513
  rotation: 
    x: 0.422702162039
    y: 0.265571354928
    z: -0.370936124272
    w: 0.783071574921
---
header: 
  seq: 47656
  stamp: 
    secs: 1401812684
    nsecs: 508447874
  frame_id: optitrak
child_frame_id: /amit_test4
transform: 
  translation: 
    x: 2.06918025017
    y: 0.623265624046
    z: 0.647795438766
  rotation: 
    x: 0.43264710758
    y: 0.270039259481
    z: -0.377083806918
    w: 0.773112532882
---
header: 
  seq: 47657
  stamp: 
    secs: 1401812684
    nsecs: 514445672
  frame_id: optitrak
child_frame_id: /amit_test4
transform: 
  translation: 
    x: 2.06918621063
    y: 0.623267591
    z: 0.647797644138
  rotation: 
    x: 0.432695387342
    y: 0.269847481537
    z: -0.377143351958
    w: 0.773123440532
---
header: 
  seq: 47658
  stamp: 
    secs: 1401812684
    nsecs: 524446782
  frame_id: optitrak
child_frame_id: /amit_test4
transform: 
  translation: 
    x: 2.06918120384
    y: 0.623280704021
    z: 0.647798776627
  rotation: 
    x: 0.432642428615
    y: 0.269930600214
    z: -0.377108691857
    w: 0.773141023902
---
header: 
  seq: 47659
  stamp: 
    secs: 1401812684
    nsecs: 534445720
  frame_id: optitrak
child_frame_id: /amit_test4
transform: 
  translation: 
    x: 2.06917357445
    y: 0.623291671276
    z: 0.647800147533
  rotation: 
    x: 0.432648240068
    y: 0.269905417252
    z: -0.377176730559
    w: 0.773113367347
---
header: 
  seq: 47660
  stamp: 
    secs: 1401812684
    nsecs: 544449660
  frame_id: optitrak
child_frame_id: /amit_test4
transform: 
  translation: 
    x: 2.06907987595
    y: 0.623122990131
    z: 0.647840797901
  rotation: 
    x: 0.432612864711
    y: 0.268904774479
    z: -0.378297536296
    w: 0.772934136181
---
header: 
  seq: 47661
  stamp: 
    secs: 1401812684
    nsecs: 555447417
  frame_id: optitrak
child_frame_id: /amit_test4
transform: 
  translation: 
    x: 2.06919813156
    y: 0.623271763325
    z: 0.647823989391
  rotation: 
    x: 0.432726739385
    y: 0.269979625034
    z: -0.377121268437
    w: 0.773070571212
---
header: 
  seq: 47662
  stamp: 
    secs: 1401812684
    nsecs: 564478359
  frame_id: optitrak
child_frame_id: /amit_test4
transform: 
  translation: 
    x: 2.06920385361
    y: 0.623280465603
    z: 0.647811353207
  rotation: 
    x: 0.432576803901
    y: 0.269871025372
    z: -0.37718072407
    w: 0.773163435249
---
